{"properties": {"dataset": "glottolog", "uri_template": "https://glottolog.org/resource/languoid/id/{id}"}, "resources": [{"id": "3adt1234", "name": "3Ad-Tekles", "latitude": null, "longitude": null, "identifiers": []}, {"id": "aala1237", "name": "Aalawa", "latitude": null, "longitude": null, "identifiers": []}, {"id": "aant1238", "name": "Aantantara", "latitude": null, "longitude": null, "identifiers": []}, {"id": "aari1238", "name": "Aari-Gayil", "latitude": null, "longitude": null, "identifiers": [{"type": "iso639-3", "identifier": "aiz"}]}, {"id": "aari1239", "name": "Aari", "latitude": 5.95034, "longitude": 36.5721, "identifiers": [{"type": "iso639-3", "identifier": "aiw"}]}, {"id": "aari1240", "name": "Aariya", "latitude": null, "longitude": null, "identifiers": [{"type": "iso639-3", "identifier": "aay"}]}, {"id": "aasa1238", "name": "Aasax", "latitude": -4.00679, "longitude": 36.8648, "identifiers": [{"type": "iso639-3", "identifier": "aas"}]}, {"id": "aasd1234", "name": "Aasdring", "latitude": null, "longitude": null, "identifiers": []}, {"id": "aata1238", "name": "Aatasaara", "latitude": null, "longitude": null, "identifiers": []}, {"id": "abaa1238", "name": "Rngaba", "latitude": null, "longitude": null, "identifiers": []}, {"id": "abab1239", "name": "Ababda", "latitude": null, "longitude": null, "identifiers": []}, {"id": "abab1240", "name": "Ababuan", "latitude": null, "longitude": null, "identifiers": []}, {"id": "abad1240", "name": "Abadzex", "latitude": null, "longitude": null, "identifiers": []}, {"id": "abad1241", "name": "Abadi", "latitude": -9.03389, "longitude": 146.992, "identifiers": [{"type": "iso639-3", "identifier": "kbt"}]}, {"id": "abad1242", "name": "Abadei", "latitude": null, "longitude": null, "identifiers": []}, {"id": "abad1243", "name": "Abadani", "latitude": null, "longitude": null, "identifiers": []}, {"id": "abag1245", "name": "Abaga", "latitude": -6.12028, "longitude": 145.665, "identifiers": [{"type": "iso639-3", "identifier": "abg"}]}, {"id": "abai1239", "name": "Abai", "latitude": null, "longitude": null, "identifiers": []}, {"id": "abai1240", "name": "Abai Sungai", "latitude": 5.55394, "longitude": 118.306, "identifiers": [{"type": "iso639-3", "identifier": "abf"}]}, {"id": "abai1241", "name": "Abai Tubu-Abai Sembuak", "latitude": 3.524226, "longitude": 116.162455, "identifiers": []}, {"id": "abaj1234", "name": "Abaje\u00f1o Mexican Spanish", "latitude": null, "longitude": null, "identifiers": []}, {"id": "abak1242", "name": "Abak", "latitude": null, "longitude": null, "identifiers": []}, {"id": "abak1243", "name": "Abaka", "latitude": null, "longitude": null, "identifiers": []}, {"id": "abal1238", "name": "Abaletti", "latitude": null, "longitude": null, "identifiers": []}, {"id": "abam1239", "name": "Abam", "latitude": null, "longitude": null, "identifiers": []}, {"id": "aban1242", "name": "Abanyom", "latitude": 6.30619, "longitude": 8.63055, "identifiers": [{"type": "iso639-3", "identifier": "abm"}]}, {"id": "aban1243", "name": "Abancay", "latitude": null, "longitude": null, "identifiers": []}, {"id": "aban1245", "name": "Abanyom-Nkem-Nkum", "latitude": null, "longitude": null, "identifiers": []}, {"id": "abar1238", "name": "Mungbam", "latitude": 6.5805, "longitude": 10.2267, "identifiers": [{"type": "iso639-3", "identifier": "mij"}]}, {"id": "abar1239", "name": "Abar", "latitude": null, "longitude": null, "identifiers": []}, {"id": "abau1245", "name": "Abau", "latitude": -3.97222, "longitude": 141.324, "identifiers": [{"type": "iso639-3", "identifier": "aau"}]}, {"id": "abaw1238", "name": "Abawa", "latitude": null, "longitude": null, "identifiers": []}, {"id": "abaw1239", "name": "Abawic", "latitude": null, "longitude": null, "identifiers": []}, {"id": "abay1238", "name": "Abayongo", "latitude": null, "longitude": null, "identifiers": []}, {"id": "abaz1241", "name": "Abaza", "latitude": 44.25, "longitude": 42.0, "identifiers": [{"type": "iso639-3", "identifier": "abq"}]}, {"id": "abbe1238", "name": "Abbey-Ve", "latitude": null, "longitude": null, "identifiers": []}, {"id": "abbr1238", "name": "Abbruzzesi", "latitude": null, "longitude": null, "identifiers": []}, {"id": "abch1234", "name": "Abchuya'i", "latitude": null, "longitude": null, "identifiers": []}, {"id": "abda1238", "name": "'Abd Al-Kuri", "latitude": 12.1959, "longitude": 52.2282, "identifiers": []}, {"id": "abed1238", "name": "Abedju-Azaki", "latitude": null, "longitude": null, "identifiers": []}, {"id": "abee1242", "name": "Ab\u00e9", "latitude": 5.59682, "longitude": -4.38497, "identifiers": [{"type": "iso639-3", "identifier": "aba"}]}, {"id": "abee1243", "name": "Abe (Anyin)", "latitude": null, "longitude": null, "identifiers": []}, {"id": "abel1234", "name": "Abellen-Botolan", "latitude": null, "longitude": null, "identifiers": []}, {"id": "aben1247", "name": "Abeng", "latitude": null, "longitude": null, "identifiers": []}, {"id": "aben1248", "name": "A'beng", "latitude": null, "longitude": null, "identifiers": []}, {"id": "aben1249", "name": "Abenlen Ayta", "latitude": 15.4131, "longitude": 120.2, "identifiers": [{"type": "iso639-3", "identifier": "abp"}]}, {"id": "aben1250", "name": "Abenaki", "latitude": null, "longitude": null, "identifiers": []}, {"id": "abgu1238", "name": "Abgue", "latitude": null, "longitude": null, "identifiers": []}, {"id": "abid1235", "name": "Abidji", "latitude": 5.65656, "longitude": -4.58421, "identifiers": [{"type": "iso639-3", "identifier": "abi"}]}, {"id": "abie1238", "name": "Abiem", "latitude": null, "longitude": null, "identifiers": []}, {"id": "abig1238", "name": "Abigar", "latitude": null, "longitude": null, "identifiers": []}, {"id": "abil1238", "name": "Abiliang", "latitude": null, "longitude": null, "identifiers": []}, {"id": "abin1242", "name": "Abini", "latitude": null, "longitude": null, "identifiers": []}, {"id": "abin1243", "name": "Abinomn", "latitude": -2.92281, "longitude": 138.891, "identifiers": [{"type": "iso639-3", "identifier": "bsa"}]}, {"id": "abip1241", "name": "Abipon", "latitude": -29.0, "longitude": -61.0, "identifiers": [{"type": "iso639-3", "identifier": "axb"}]}, {"id": "abis1238", "name": "Aewa", "latitude": -1.284096, "longitude": -75.084405, "identifiers": [{"type": "iso639-3", "identifier": "ash"}]}, {"id": "abka1238", "name": "Abkar", "latitude": null, "longitude": null, "identifiers": []}, {"id": "abkh1242", "name": "Abkhaz-Adyge", "latitude": null, "longitude": null, "identifiers": []}, {"id": "abkh1243", "name": "Abkhaz-Abaza", "latitude": null, "longitude": null, "identifiers": []}, {"id": "abkh1244", "name": "Abkhaz", "latitude": 43.056218, "longitude": 41.159115, "identifiers": [{"type": "iso639-3", "identifier": "abk"}]}, {"id": "able1237", "name": "Ableg-Salegseg", "latitude": null, "longitude": null, "identifiers": []}, {"id": "abob1234", "name": "Abo-Barombi", "latitude": null, "longitude": null, "identifiers": []}, {"id": "abom1238", "name": "Abom", "latitude": -8.42448, "longitude": 142.842, "identifiers": [{"type": "iso639-3", "identifier": "aob"}]}, {"id": "abon1238", "name": "Abon", "latitude": 6.90621, "longitude": 10.8769, "identifiers": [{"type": "iso639-3", "identifier": "abo"}]}, {"id": "aboo1241", "name": "Abo (Bokyi)", "latitude": null, "longitude": null, "identifiers": []}, {"id": "aboo1242", "name": "Abo", "latitude": null, "longitude": null, "identifiers": []}, {"id": "abou1238", "name": "Abou Charib", "latitude": null, "longitude": null, "identifiers": []}, {"id": "abra1237", "name": "Abra-De-Ilog", "latitude": null, "longitude": null, "identifiers": []}, {"id": "abro1238", "name": "Abron", "latitude": 7.72094, "longitude": -2.50289, "identifiers": [{"type": "iso639-3", "identifier": "abr"}]}, {"id": "abru1239", "name": "Abruzzese-Calabrian-Molisean Romani", "latitude": null, "longitude": null, "identifiers": []}, {"id": "absh1238", "name": "Absheron", "latitude": null, "longitude": null, "identifiers": []}, {"id": "abua1243", "name": "Abua-Odual", "latitude": null, "longitude": null, "identifiers": []}, {"id": "abua1244", "name": "Abua", "latitude": 4.83057, "longitude": 6.61492, "identifiers": [{"type": "iso639-3", "identifier": "abn"}]}, {"id": "abua1245", "name": "Abu' Arapesh", "latitude": -3.461612, "longitude": 142.917031, "identifiers": [{"type": "iso639-3", "identifier": "aah"}]}, {"id": "abui1241", "name": "Abui", "latitude": -8.31058, "longitude": 124.588, "identifiers": [{"type": "iso639-3", "identifier": "abz"}]}, {"id": "abuj1237", "name": "Abujmaria", "latitude": null, "longitude": null, "identifiers": []}, {"id": "abul1238", "name": "Abuldugu", "latitude": null, "longitude": null, "identifiers": []}, {"id": "abun1252", "name": "Abun", "latitude": -0.57073, "longitude": 132.416, "identifiers": [{"type": "iso639-3", "identifier": "kgr"}]}, {"id": "abun1253", "name": "Abun Je", "latitude": null, "longitude": null, "identifiers": []}, {"id": "abun1254", "name": "Abun Tat", "latitude": null, "longitude": null, "identifiers": []}, {"id": "abun1255", "name": "Abun Ji", "latitude": null, "longitude": null, "identifiers": []}, {"id": "abur1243", "name": "Abure", "latitude": 5.21534, "longitude": -3.64123, "identifiers": [{"type": "iso639-3", "identifier": "abu"}]}, {"id": "abur1244", "name": "Abureni", "latitude": 4.62301, "longitude": 6.50634, "identifiers": [{"type": "iso639-3", "identifier": "mgj"}]}, {"id": "abus1238", "name": "Abu Sinun", "latitude": null, "longitude": null, "identifiers": []}, {"id": "abuu1241", "name": "Abu", "latitude": -4.24027, "longitude": 144.474, "identifiers": [{"type": "iso639-3", "identifier": "ado"}]}, {"id": "abuz1234", "name": "Abuzaydabadi", "latitude": null, "longitude": null, "identifiers": []}, {"id": "abya1234", "name": "Abyane'i", "latitude": null, "longitude": null, "identifiers": []}, {"id": "abzh1238", "name": "Abzhui", "latitude": null, "longitude": null, "identifiers": []}, {"id": "acad1238", "name": "Acadian", "latitude": null, "longitude": null, "identifiers": []}, {"id": "acat1239", "name": "Acatepec Me'phaa", "latitude": 17.1034, "longitude": -99.0602, "identifiers": [{"type": "iso639-3", "identifier": "tpx"}]}, {"id": "acat1240", "name": "Acatepec", "latitude": null, "longitude": null, "identifiers": []}, {"id": "acch1238", "name": "Acchami", "latitude": null, "longitude": null, "identifiers": []}, {"id": "acha1249", "name": "Longchuan Achang", "latitude": 24.3479, "longitude": 97.7438, "identifiers": [{"type": "iso639-3", "identifier": "acn"}]}, {"id": "acha1250", "name": "Achagua", "latitude": 4.38649, "longitude": -72.2005, "identifiers": [{"type": "iso639-3", "identifier": "aca"}]}, {"id": "acha1252", "name": "Achangic", "latitude": null, "longitude": null, "identifiers": []}, {"id": "ache1244", "name": "Ache", "latitude": 24.152, "longitude": 102.446, "identifiers": [{"type": "iso639-3", "identifier": "yif"}]}, {"id": "ache1245", "name": "Acheron", "latitude": 10.8827, "longitude": 30.3187, "identifiers": [{"type": "iso639-3", "identifier": "acz"}]}, {"id": "ache1246", "name": "Ach\u00e9", "latitude": -25.5865, "longitude": -56.4697, "identifiers": [{"type": "iso639-3", "identifier": "guq"}]}, {"id": "ache1247", "name": "Acheron-Tocho", "latitude": null, "longitude": null, "identifiers": []}, {"id": "achi1247", "name": "Achik", "latitude": null, "longitude": null, "identifiers": []}, {"id": "achi1255", "name": "A'chick", "latitude": null, "longitude": null, "identifiers": []}, {"id": "achi1256", "name": "Achi", "latitude": 15.073, "longitude": -90.3513, "identifiers": [{"type": "iso639-3", "identifier": "acr"}]}, {"id": "achi1257", "name": "Acehnese", "latitude": 3.90757, "longitude": 96.6032, "identifiers": [{"type": "iso639-3", "identifier": "ace"}]}, {"id": "achi1258", "name": "Achi', Cubulco", "latitude": null, "longitude": null, "identifiers": [{"type": "iso639-3", "identifier": "acc"}]}, {"id": "acht1238", "name": "Achterhoeks", "latitude": 52.021, "longitude": 6.47521, "identifiers": [{"type": "iso639-3", "identifier": "act"}]}, {"id": "acht1239", "name": "Achterveld", "latitude": null, "longitude": null, "identifiers": []}, {"id": "achu1247", "name": "Achumawi", "latitude": 41.0979, "longitude": -121.191, "identifiers": [{"type": "iso639-3", "identifier": "acv"}]}, {"id": "achu1248", "name": "Achuar-Shiwiar", "latitude": -2.82646, "longitude": -77.2641, "identifiers": [{"type": "iso639-3", "identifier": "acu"}]}, {"id": "achu1249", "name": "Achuar", "latitude": null, "longitude": null, "identifiers": []}, {"id": "acii1238", "name": "Aci", "latitude": null, "longitude": null, "identifiers": []}, {"id": "acod1234", "name": "Acodi", "latitude": null, "longitude": null, "identifiers": []}, {"id": "acol1236", "name": "Acoli", "latitude": 3.57738, "longitude": 32.5147, "identifiers": [{"type": "iso639-3", "identifier": "ach"}]}, {"id": "acom1246", "name": "Acoma", "latitude": null, "longitude": null, "identifiers": []}, {"id": "acro1239", "name": "Acro\u00e1", "latitude": -12.594, "longitude": -40.21445, "identifiers": [{"type": "iso639-3", "identifier": "acs"}]}, {"id": "acro1240", "name": "Acrolectal Fiji English", "latitude": null, "longitude": null, "identifiers": []}, {"id": "adaa1238", "name": "Ada", "latitude": null, "longitude": null, "identifiers": []}, {"id": "adab1235", "name": "Adabe", "latitude": -8.22674, "longitude": 125.576, "identifiers": [{"type": "iso639-3", "identifier": "adb"}]}, {"id": "adae1234", "name": "Adaese\u00f1o Spanish", "latitude": null, "longitude": null, "identifiers": []}, {"id": "adai1235", "name": "Adai", "latitude": 31.6314, "longitude": -92.0059, "identifiers": [{"type": "iso639-3", "identifier": "xad"}]}, {"id": "adam1238", "name": "Adamorobe Sign Language", "latitude": 5.834, "longitude": -0.151, "identifiers": [{"type": "iso639-3", "identifier": "ads"}]}, {"id": "adam1253", "name": "Adamawa Fulfulde", "latitude": 8.140326, "longitude": 13.077338, "identifiers": [{"type": "iso639-3", "identifier": "fub"}]}, {"id": "adam1254", "name": "Adamawa Fali", "latitude": null, "longitude": null, "identifiers": []}, {"id": "adam1257", "name": "Adamawa Bua", "latitude": null, "longitude": null, "identifiers": []}, {"id": "adam1260", "name": "Adamawa-Bagirmi Fulfulde", "latitude": null, "longitude": null, "identifiers": []}, {"id": "adan1247", "name": "Adangme", "latitude": 5.9437, "longitude": 0.13243, "identifiers": [{"type": "iso639-3", "identifier": "ada"}]}, {"id": "adan1248", "name": "Adangbe", "latitude": 6.50546, "longitude": 0.727155, "identifiers": [{"type": "iso639-3", "identifier": "adq"}]}, {"id": "adan1249", "name": "Adan", "latitude": null, "longitude": null, "identifiers": []}, {"id": "adan1250", "name": "Adang (Lundayeh)", "latitude": null, "longitude": null, "identifiers": []}, {"id": "adan1251", "name": "Adang", "latitude": -8.18958, "longitude": 124.448, "identifiers": [{"type": "iso639-3", "identifier": "adn"}]}, {"id": "adan1252", "name": "Adang-Hamap-Kabola", "latitude": null, "longitude": null, "identifiers": []}, {"id": "adap1234", "name": "Adap", "latitude": 27.141, "longitude": 90.3369, "identifiers": [{"type": "iso639-3", "identifier": "adp"}]}, {"id": "adar1242", "name": "Adarawa", "latitude": null, "longitude": null, "identifiers": []}, {"id": "adas1235", "name": "Adasen", "latitude": 17.8187, "longitude": 120.905, "identifiers": [{"type": "iso639-3", "identifier": "tiu"}]}, {"id": "addi1234", "name": "Addis Ababa Ethiopian Sign Language", "latitude": null, "longitude": null, "identifiers": []}, {"id": "adel1244", "name": "Adele", "latitude": 8.16975, "longitude": 0.619185, "identifiers": [{"type": "iso639-3", "identifier": "ade"}]}, {"id": "aden1241", "name": "Adeni", "latitude": null, "longitude": null, "identifiers": []}, {"id": "aden1242", "name": "'Aden", "latitude": null, "longitude": null, "identifiers": []}, {"id": "ader1239", "name": "Aderawa", "latitude": null, "longitude": null, "identifiers": []}, {"id": "adew1237", "name": "Adewada", "latitude": null, "longitude": null, "identifiers": []}, {"id": "adga1237", "name": "Adgawan", "latitude": null, "longitude": null, "identifiers": []}, {"id": "adha1237", "name": "Adham", "latitude": null, "longitude": null, "identifiers": []}, {"id": "adha1238", "name": "Adhari", "latitude": 40.05, "longitude": 48.06, "identifiers": []}, {"id": "adho1241", "name": "Adhola-Alur-Luo", "latitude": null, "longitude": null, "identifiers": []}, {"id": "adho1242", "name": "Adhola-Luo", "latitude": null, "longitude": null, "identifiers": []}, {"id": "adho1243", "name": "Adhola", "latitude": 0.73235, "longitude": 34.0341, "identifiers": [{"type": "iso639-3", "identifier": "adh"}]}, {"id": "adib1240", "name": "Adibom", "latitude": null, "longitude": null, "identifiers": []}, {"id": "adid1237", "name": "Adi Dravida", "latitude": null, "longitude": null, "identifiers": []}, {"id": "adie1238", "name": "Adie", "latitude": null, "longitude": null, "identifiers": []}, {"id": "adih1238", "name": "Adihup", "latitude": null, "longitude": null, "identifiers": []}, {"id": "adij1237", "name": "Adijaya", "latitude": null, "longitude": null, "identifiers": []}, {"id": "adim1238", "name": "Adim", "latitude": null, "longitude": null, "identifiers": []}, {"id": "adio1239", "name": "Adioukrou", "latitude": 5.38228, "longitude": -4.52522, "identifiers": [{"type": "iso639-3", "identifier": "adj"}]}, {"id": "adiv1238", "name": "Adivasi Wagdi", "latitude": null, "longitude": null, "identifiers": []}, {"id": "adiv1239", "name": "Kotia-Adivasi Oriya-Desiya", "latitude": 18.1046, "longitude": 82.8487, "identifiers": [{"type": "iso639-3", "identifier": "ort"}]}, {"id": "adiw1235", "name": "Adiwasi Garasia", "latitude": 24.0712, "longitude": 73.1426, "identifiers": [{"type": "iso639-3", "identifier": "gas"}]}, {"id": "adiy1237", "name": "Adiya", "latitude": null, "longitude": null, "identifiers": []}, {"id": "adja1238", "name": "Adjabdurah", "latitude": null, "longitude": null, "identifiers": []}, {"id": "adju1239", "name": "Adjumani", "latitude": null, "longitude": null, "identifiers": []}, {"id": "adku1239", "name": "Adkuri", "latitude": null, "longitude": null, "identifiers": []}, {"id": "admi1239", "name": "Admiralty Islands", "latitude": null, "longitude": null, "identifiers": []}, {"id": "adny1235", "name": "Adnyamathanha", "latitude": -30.1451, "longitude": 138.671, "identifiers": [{"type": "iso639-3", "identifier": "adt"}]}, {"id": "adom1238", "name": "Adoma", "latitude": null, "longitude": null, "identifiers": []}, {"id": "adon1237", "name": "Adonara", "latitude": -8.32027, "longitude": 123.159, "identifiers": [{"type": "iso639-3", "identifier": "adr"}]}, {"id": "adoo1237", "name": "Ado", "latitude": null, "longitude": null, "identifiers": []}, {"id": "adoy1238", "name": "Adoyo", "latitude": null, "longitude": null, "identifiers": []}, {"id": "adug1238", "name": "Aduge", "latitude": 7.64567, "longitude": 6.13085, "identifiers": [{"type": "iso639-3", "identifier": "adu"}]}, {"id": "adun1238", "name": "Adun", "latitude": null, "longitude": null, "identifiers": []}, {"id": "adur1234", "name": "Adurgari", "latitude": 33.79, "longitude": 69.32, "identifiers": []}, {"id": "aduu1238", "name": "Adu", "latitude": null, "longitude": null, "identifiers": []}, {"id": "adyg1241", "name": "Adyghe", "latitude": 44.0, "longitude": 39.33, "identifiers": [{"type": "iso639-3", "identifier": "ady"}]}, {"id": "adze1240", "name": "Adzera", "latitude": -6.39394, "longitude": 146.294, "identifiers": [{"type": "iso639-3", "identifier": "adz"}]}, {"id": "adze1241", "name": "Adzera (Retired)", "latitude": null, "longitude": null, "identifiers": [{"type": "iso639-3", "identifier": "azr"}]}, {"id": "adzh1238", "name": "Adzhar", "latitude": null, "longitude": null, "identifiers": []}, {"id": "aegi1237", "name": "Aegina", "latitude": null, "longitude": null, "identifiers": []}, {"id": "aeka1244", "name": "Aeka", "latitude": -8.855095, "longitude": 147.99477, "identifiers": [{"type": "iso639-3", "identifier": "aez"}]}, {"id": "aeky1238", "name": "Aekyom", "latitude": -5.88478, "longitude": 141.532, "identifiers": [{"type": "iso639-3", "identifier": "awi"}]}, {"id": "aeol1234", "name": "Aeolic", "latitude": null, "longitude": null, "identifiers": []}, {"id": "aequ1239", "name": "Aequian", "latitude": null, "longitude": null, "identifiers": []}, {"id": "aerr1238", "name": "Aer", "latitude": 25.254, "longitude": 69.029, "identifiers": [{"type": "iso639-3", "identifier": "aeq"}]}, {"id": "aewa1238", "name": "Aewa (Western Province)", "latitude": null, "longitude": null, "identifiers": []}, {"id": "afaa1238", "name": "Afa", "latitude": null, "longitude": null, "identifiers": []}, {"id": "afad1236", "name": "Afade", "latitude": 12.0551, "longitude": 14.6343, "identifiers": [{"type": "iso639-3", "identifier": "aal"}]}, {"id": "afar1241", "name": "Afar", "latitude": 12.2281, "longitude": 41.8083, "identifiers": [{"type": "iso639-3", "identifier": "aar"}]}, {"id": "afas1238", "name": "Af-Ashraaf", "latitude": null, "longitude": null, "identifiers": []}, {"id": "afen1234", "name": "Afenmai-Bendel", "latitude": null, "longitude": null, "identifiers": []}, {"id": "affa1240", "name": "Affade", "latitude": null, "longitude": null, "identifiers": []}, {"id": "affi1239", "name": "Affiniam", "latitude": null, "longitude": null, "identifiers": []}, {"id": "afgh1238", "name": "Afghanistan-Uzbekistan Arabic", "latitude": null, "longitude": null, "identifiers": []}, {"id": "afgh1239", "name": "Afghan Sign Language", "latitude": 34.434167, "longitude": 70.447778, "identifiers": [{"type": "iso639-3", "identifier": "afg"}]}, {"id": "afgh1240", "name": "Afghanistan Gorbat", "latitude": null, "longitude": null, "identifiers": []}, {"id": "afgh1241", "name": "Afghanistan Balochi", "latitude": null, "longitude": null, "identifiers": []}, {"id": "afhe1238", "name": "Af-Helledi", "latitude": null, "longitude": null, "identifiers": []}, {"id": "afik1238", "name": "Afikpo", "latitude": null, "longitude": null, "identifiers": []}, {"id": "afit1238", "name": "Afitti", "latitude": 12.446, "longitude": 30.7611, "identifiers": [{"type": "iso639-3", "identifier": "aft"}]}, {"id": "afor1239", "name": "Afore", "latitude": null, "longitude": null, "identifiers": []}, {"id": "afri1271", "name": "Afridi", "latitude": null, "longitude": null, "identifiers": []}, {"id": "afri1272", "name": "Afrike", "latitude": null, "longitude": null, "identifiers": []}, {"id": "afri1273", "name": "Afrikaansic", "latitude": null, "longitude": null, "identifiers": []}, {"id": "afri1274", "name": "Afrikaans", "latitude": -22.0, "longitude": 30.0, "identifiers": [{"type": "iso639-3", "identifier": "afr"}]}, {"id": "afri1275", "name": "Afrihili", "latitude": null, "longitude": null, "identifiers": [{"type": "iso639-3", "identifier": "afh"}]}, {"id": "afri1276", "name": "African American Vernacular English", "latitude": null, "longitude": null, "identifiers": []}, {"id": "afro1254", "name": "Afro-Seminole Creole", "latitude": 31.7843, "longitude": -99.2934, "identifiers": [{"type": "iso639-3", "identifier": "afs"}]}, {"id": "afro1255", "name": "Afro-Asiatic", "latitude": null, "longitude": null, "identifiers": []}, {"id": "afro1259", "name": "Afro-Asiatic (Unattested)", "latitude": null, "longitude": null, "identifiers": []}, {"id": "afro1260", "name": "Afro-Bolivian Spanish", "latitude": null, "longitude": null, "identifiers": []}, {"id": "afsh1238", "name": "Afshari", "latitude": null, "longitude": null, "identifiers": []}, {"id": "afsh1239", "name": "Afsharic", "latitude": null, "longitude": null, "identifiers": []}, {"id": "afta1234", "name": "Aftari", "latitude": 35.36, "longitude": 53.7, "identifiers": []}, {"id": "afud1235", "name": "Afudu", "latitude": 9.831149, "longitude": 11.296849, "identifiers": []}, {"id": "agaa1241", "name": "Aga", "latitude": null, "longitude": null, "identifiers": []}, {"id": "agal1241", "name": "Agalo", "latitude": null, "longitude": null, "identifiers": []}, {"id": "agam1238", "name": "Agam", "latitude": null, "longitude": null, "identifiers": []}, {"id": "agan1234", "name": "Agan", "latitude": null, "longitude": null, "identifiers": []}, {"id": "agan1235", "name": "Agan Nenets", "latitude": null, "longitude": null, "identifiers": []}, {"id": "agar1249", "name": "Agar", "latitude": null, "longitude": null, "identifiers": []}, {"id": "agar1250", "name": "Agari of Kolaba", "latitude": null, "longitude": null, "identifiers": []}, {"id": "agar1251", "name": "Agariya", "latitude": 24.5024, "longitude": 82.297, "identifiers": [{"type": "iso639-3", "identifier": "agi"}]}, {"id": "agar1252", "name": "Agarabi", "latitude": -6.20604, "longitude": 145.917, "identifiers": [{"type": "iso639-3", "identifier": "agd"}]}, {"id": "agat1236", "name": "Agatu", "latitude": 7.97915, "longitude": 7.71639, "identifiers": [{"type": "iso639-3", "identifier": "agc"}]}, {"id": "agau1239", "name": "Agaunshe", "latitude": null, "longitude": null, "identifiers": []}, {"id": "agav1236", "name": "Agavotaguerra", "latitude": -13.29849, "longitude": -53.43936, "identifiers": [{"type": "iso639-3", "identifier": "avo"}]}, {"id": "agay1235", "name": "Agayop", "latitude": null, "longitude": null, "identifiers": []}, {"id": "agba1238", "name": "Agbarho", "latitude": null, "longitude": null, "identifiers": []}, {"id": "agbi1234", "name": "Agbirigba", "latitude": null, "longitude": null, "identifiers": []}, {"id": "agbo1241", "name": "Agbome", "latitude": null, "longitude": null, "identifiers": []}, {"id": "agbo1242", "name": "Agbon", "latitude": null, "longitude": null, "identifiers": []}, {"id": "agee1238", "name": "Ageer", "latitude": null, "longitude": null, "identifiers": []}, {"id": "aghe1239", "name": "Aghem", "latitude": 6.38956, "longitude": 10.0807, "identifiers": [{"type": "iso639-3", "identifier": "agq"}]}, {"id": "aghe1240", "name": "Aghemic", "latitude": null, "longitude": null, "identifiers": []}, {"id": "aghe1241", "name": "Aghem-Weh", "latitude": null, "longitude": null, "identifiers": []}, {"id": "agho1238", "name": "Agholo", "latitude": null, "longitude": null, "identifiers": []}, {"id": "aghu1253", "name": "Aghul", "latitude": 41.9242, "longitude": 47.5843, "identifiers": [{"type": "iso639-3", "identifier": "agx"}]}, {"id": "aghu1254", "name": "Aghu Tharnggalu", "latitude": -13.735, "longitude": 142.426, "identifiers": [{"type": "iso639-3", "identifier": "ggr"}]}, {"id": "aghu1255", "name": "Aghu", "latitude": -6.34674, "longitude": 140.043, "identifiers": [{"type": "iso639-3", "identifier": "ahh"}]}, {"id": "aghu1256", "name": "Aghu Tharnggalu (Retired)", "latitude": -15.0, "longitude": 144.0, "identifiers": [{"type": "iso639-3", "identifier": "gtu"}]}, {"id": "aghu1259", "name": "Aghul-Lezgi", "latitude": null, "longitude": null, "identifiers": []}, {"id": "aghw1237", "name": "Aghwan", "latitude": 40.374444, "longitude": 47.126667, "identifiers": [{"type": "iso639-3", "identifier": "xag"}]}, {"id": "agii1244", "name": "Agi (Moru)", "latitude": null, "longitude": null, "identifiers": []}, {"id": "agii1245", "name": "Agi", "latitude": -3.49104, "longitude": 142.387, "identifiers": [{"type": "iso639-3", "identifier": "aif"}]}, {"id": "agiy1234", "name": "Agi-Yeri", "latitude": null, "longitude": null, "identifiers": []}, {"id": "agne1238", "name": "Agneby", "latitude": null, "longitude": null, "identifiers": []}, {"id": "agoa1234", "name": "Agoan", "latitude": null, "longitude": null, "identifiers": []}, {"id": "agob1244", "name": "Agob-Ende-Kawam", "latitude": -9.08521, "longitude": 142.532, "identifiers": [{"type": "iso639-3", "identifier": "kit"}]}, {"id": "agob1245", "name": "Ag\u00f6b", "latitude": null, "longitude": null, "identifiers": []}, {"id": "agoi1244", "name": "Agoi (Gen)", "latitude": null, "longitude": null, "identifiers": []}, {"id": "agoi1245", "name": "Agoi-Doko-Iyoniyong", "latitude": null, "longitude": null, "identifiers": []}, {"id": "agoi1246", "name": "Agoi", "latitude": 5.87953, "longitude": 8.21629, "identifiers": [{"type": "iso639-3", "identifier": "ibm"}]}, {"id": "agon1238", "name": "Agona", "latitude": null, "longitude": null, "identifiers": []}, {"id": "agra1238", "name": "Agrab", "latitude": null, "longitude": null, "identifiers": []}, {"id": "agta1234", "name": "Agta-Pahanan", "latitude": 17.0538, "longitude": 122.2802, "identifiers": [{"type": "iso639-3", "identifier": "apf"}]}, {"id": "agua1251", "name": "Aguano", "latitude": -5.25, "longitude": -75.8333, "identifiers": [{"type": "iso639-3", "identifier": "aga"}]}, {"id": "agua1252", "name": "Aguacateco", "latitude": 15.3307, "longitude": -91.3153, "identifiers": [{"type": "iso639-3", "identifier": "agu"}]}, {"id": "agua1253", "name": "Aguaruna", "latitude": -5.30044, "longitude": -77.9218, "identifiers": [{"type": "iso639-3", "identifier": "agr"}]}, {"id": "agua1254", "name": "Aguarico", "latitude": null, "longitude": null, "identifiers": []}, {"id": "aguf1237", "name": "Agufi", "latitude": null, "longitude": null, "identifiers": []}, {"id": "agul1243", "name": "Agulis", "latitude": null, "longitude": null, "identifiers": []}, {"id": "agul1244", "name": "Agul", "latitude": null, "longitude": null, "identifiers": []}, {"id": "agul1245", "name": "Agulis-Meghri", "latitude": null, "longitude": null, "identifiers": []}, {"id": "agun1238", "name": "Aguna", "latitude": 7.49256, "longitude": 1.74452, "identifiers": [{"type": "iso639-3", "identifier": "aug"}]}, {"id": "aguo1238", "name": "Aguok", "latitude": null, "longitude": null, "identifiers": []}, {"id": "agus1235", "name": "Agusan Manobo", "latitude": 8.62731, "longitude": 125.742, "identifiers": [{"type": "iso639-3", "identifier": "msm"}]}, {"id": "agut1237", "name": "Agutaynen", "latitude": 10.5328, "longitude": 119.655, "identifiers": [{"type": "iso639-3", "identifier": "agn"}]}, {"id": "aguu1241", "name": "Agu", "latitude": null, "longitude": null, "identifiers": []}, {"id": "aguu1242", "name": "Agu (Ewe)", "latitude": null, "longitude": null, "identifiers": []}, {"id": "agwa1246", "name": "Agwatashi", "latitude": null, "longitude": null, "identifiers": []}, {"id": "agwa1247", "name": "Agwagwune", "latitude": 5.81055, "longitude": 8.03166, "identifiers": [{"type": "iso639-3", "identifier": "yay"}]}, {"id": "ahaf1238", "name": "Ahafo", "latitude": null, "longitude": null, "identifiers": []}, {"id": "ahan1243", "name": "Ahanta", "latitude": 4.85147, "longitude": -1.94657, "identifiers": [{"type": "iso639-3", "identifier": "aha"}]}, {"id": "ahan1244", "name": "\u00c0h\u00e0n", "latitude": 7.44139, "longitude": 6.00896, "identifiers": [{"type": "iso639-3", "identifier": "ahn"}]}, {"id": "ahea1235", "name": "Aheave", "latitude": null, "longitude": null, "identifiers": []}, {"id": "ahea1240", "name": "Ahe", "latitude": null, "longitude": null, "identifiers": [{"type": "iso639-3", "identifier": "ahe"}]}, {"id": "ahei1238", "name": "Aheima", "latitude": null, "longitude": null, "identifiers": []}, {"id": "aher1237", "name": "Aheri Gondi", "latitude": 19.4163, "longitude": 80.0058, "identifiers": [{"type": "iso639-3", "identifier": "esg"}]}, {"id": "aheu1239", "name": "Thavung", "latitude": 17.7655, "longitude": 104.229, "identifiers": [{"type": "iso639-3", "identifier": "thm"}]}, {"id": "ahin1234", "name": "Ahin-Kayapa Kalanguya", "latitude": 16.321, "longitude": 120.90003, "identifiers": [{"type": "iso639-3", "identifier": "kak"}]}, {"id": "ahir1242", "name": "Ahiri", "latitude": null, "longitude": null, "identifiers": []}, {"id": "ahir1243", "name": "Ahirani", "latitude": 21.552, "longitude": 73.685, "identifiers": [{"type": "iso639-3", "identifier": "ahr"}]}, {"id": "ahkk1235", "name": "AHK", "latitude": null, "longitude": null, "identifiers": []}, {"id": "ahom1240", "name": "Ahom", "latitude": 27.2778, "longitude": 88.464, "identifiers": [{"type": "iso639-3", "identifier": "aho"}]}, {"id": "ahou1236", "name": "Ahouic", "latitude": null, "longitude": null, "identifiers": []}, {"id": "ahte1237", "name": "Ahtena", "latitude": 61.7068, "longitude": -144.889, "identifiers": [{"type": "iso639-3", "identifier": "aht"}]}, {"id": "ahua1238", "name": "Ahuatempan Popoloca", "latitude": null, "longitude": null, "identifiers": []}, {"id": "ahva1234", "name": "Ahvazi", "latitude": null, "longitude": null, "identifiers": []}, {"id": "ahwa1235", "name": "Ndunic", "latitude": 9.17635, "longitude": 8.56205, "identifiers": [{"type": "iso639-3", "identifier": "nfd"}]}, {"id": "ahwa1239", "name": "Ahwaz", "latitude": null, "longitude": null, "identifiers": []}, {"id": "aial1237", "name": "Ai'alu", "latitude": null, "longitude": null, "identifiers": []}, {"id": "aian1241", "name": "Aian", "latitude": null, "longitude": null, "identifiers": []}, {"id": "aibo1237", "name": "Aibondeni", "latitude": null, "longitude": null, "identifiers": []}, {"id": "aich1238", "name": "Ai-Cham", "latitude": 25.4908, "longitude": 107.844, "identifiers": [{"type": "iso639-3", "identifier": "aih"}]}, {"id": "aiew1238", "name": "Aiewomba", "latitude": null, "longitude": null, "identifiers": []}, {"id": "aigh1235", "name": "Aighon", "latitude": -5.99488, "longitude": 150.272, "identifiers": [{"type": "iso639-3", "identifier": "aix"}]}, {"id": "aigo1239", "name": "Aigon", "latitude": null, "longitude": null, "identifiers": []}, {"id": "aigu1239", "name": "Aigun", "latitude": null, "longitude": null, "identifiers": []}, {"id": "aika1237", "name": "Aikan\u00e3", "latitude": -12.6695, "longitude": -60.5353, "identifiers": [{"type": "iso639-3", "identifier": "tba"}]}, {"id": "aikl1237", "name": "Aiklep", "latitude": -6.23575, "longitude": 149.571, "identifiers": [{"type": "iso639-3", "identifier": "mwg"}]}, {"id": "aiko1237", "name": "Aikoa", "latitude": null, "longitude": null, "identifiers": []}, {"id": "aiku1240", "name": "Aiku", "latitude": null, "longitude": null, "identifiers": [{"type": "iso639-3", "identifier": "mzf"}]}, {"id": "aima1241", "name": "Aimaq", "latitude": 35.283, "longitude": 59.1756, "identifiers": [{"type": "iso639-3", "identifier": "aiq"}]}, {"id": "aima1242", "name": "Aimara", "latitude": null, "longitude": null, "identifiers": []}, {"id": "aime1238", "name": "Aimele", "latitude": -6.68656, "longitude": 142.656, "identifiers": [{"type": "iso639-3", "identifier": "ail"}]}, {"id": "aimo1244", "name": "Aimol", "latitude": 24.6437, "longitude": 94.3556, "identifiers": [{"type": "iso639-3", "identifier": "aim"}]}, {"id": "aimo1245", "name": "Aimoli", "latitude": null, "longitude": null, "identifiers": []}, {"id": "aimo1246", "name": "Aimore", "latitude": null, "longitude": null, "identifiers": []}, {"id": "aimo1248", "name": "Aimol-Koireng", "latitude": null, "longitude": null, "identifiers": []}, {"id": "ainb1238", "name": "Ainbai", "latitude": -3.09214, "longitude": 141.149, "identifiers": [{"type": "iso639-3", "identifier": "aic"}]}, {"id": "aine1237", "name": "Ane Kuruba", "latitude": null, "longitude": null, "identifiers": []}, {"id": "ainu1240", "name": "Hokkaido Ainu", "latitude": 43.633654, "longitude": 142.46167, "identifiers": [{"type": "iso639-3", "identifier": "ain"}]}, {"id": "ainu1251", "name": "Ainu (China)", "latitude": 39.2714, "longitude": 76.4209, "identifiers": [{"type": "iso639-3", "identifier": "aib"}]}, {"id": "ainu1252", "name": "Ainu", "latitude": null, "longitude": null, "identifiers": []}, {"id": "aiom1240", "name": "Aiome", "latitude": -5.13467, "longitude": 144.765, "identifiers": [{"type": "iso639-3", "identifier": "aki"}]}, {"id": "aird1238", "name": "Aird Hills", "latitude": null, "longitude": null, "identifiers": []}, {"id": "airm1240", "name": "Air Mata", "latitude": null, "longitude": null, "identifiers": []}, {"id": "airm1241", "name": "Airmadidi", "latitude": null, "longitude": null, "identifiers": []}, {"id": "airo1242", "name": "Airoran", "latitude": -1.8522, "longitude": 138.158, "identifiers": [{"type": "iso639-3", "identifier": "air"}]}, {"id": "airr1238", "name": "Tarbun", "latitude": null, "longitude": null, "identifiers": []}, {"id": "airr1242", "name": "Air (Berber)", "latitude": null, "longitude": null, "identifiers": []}, {"id": "airy1239", "name": "Airym", "latitude": null, "longitude": null, "identifiers": []}, {"id": "aisi1234", "name": "Aisian", "latitude": null, "longitude": null, "identifiers": []}, {"id": "aita1238", "name": "Aita", "latitude": null, "longitude": null, "identifiers": []}, {"id": "aito1238", "name": "Aiton", "latitude": 26.5145, "longitude": 92.3169, "identifiers": [{"type": "iso639-3", "identifier": "aio"}]}, {"id": "aitu1237", "name": "Aitutaki", "latitude": null, "longitude": null, "identifiers": []}, {"id": "aiya1239", "name": "Aiyangar", "latitude": null, "longitude": null, "identifiers": []}, {"id": "aiya1240", "name": "Aiyar", "latitude": null, "longitude": null, "identifiers": []}, {"id": "aiye1241", "name": "Aiyegunle", "latitude": null, "longitude": null, "identifiers": []}, {"id": "aiye1242", "name": "||'Aiye", "latitude": null, "longitude": null, "identifiers": []}, {"id": "aizi1248", "name": "Aizi", "latitude": null, "longitude": null, "identifiers": []}, {"id": "aizu1241", "name": "Aizu", "latitude": null, "longitude": null, "identifiers": []}, {"id": "ajab1235", "name": "Aja (Benin)", "latitude": 7.06634, "longitude": 1.64992, "identifiers": [{"type": "iso639-3", "identifier": "ajg"}]}, {"id": "ajam1240", "name": "Ajam", "latitude": null, "longitude": null, "identifiers": []}, {"id": "ajas1235", "name": "Aja (South Sudan)", "latitude": 8.58003, "longitude": 25.6122, "identifiers": [{"type": "iso639-3", "identifier": "aja"}]}, {"id": "ajaw1236", "name": "Ajawa", "latitude": 10.21, "longitude": 9.89205, "identifiers": [{"type": "iso639-3", "identifier": "ajw"}]}, {"id": "ajee1238", "name": "Aje", "latitude": null, "longitude": null, "identifiers": []}, {"id": "ajie1238", "name": "Aji\u00eb", "latitude": -21.3029, "longitude": 165.468, "identifiers": [{"type": "iso639-3", "identifier": "aji"}]}, {"id": "ajir1238", "name": "Ajiri of Hazara", "latitude": null, "longitude": null, "identifiers": []}, {"id": "ajiw1238", "name": "Ajiw", "latitude": null, "longitude": null, "identifiers": []}, {"id": "ajra1238", "name": "Ajra", "latitude": null, "longitude": null, "identifiers": []}, {"id": "ajug1238", "name": "Ajugu", "latitude": null, "longitude": null, "identifiers": []}, {"id": "ajuh1237", "name": "Ajuh", "latitude": null, "longitude": null, "identifiers": []}, {"id": "ajum1239", "name": "Ajumba", "latitude": null, "longitude": null, "identifiers": []}, {"id": "ajyi1238", "name": "Ajy\u00edninka Apurucayali", "latitude": -9.82364, "longitude": -74.61947, "identifiers": [{"type": "iso639-3", "identifier": "cpc"}]}, {"id": "akaa1242", "name": "Aka", "latitude": 11.2101, "longitude": 33.6524, "identifiers": [{"type": "iso639-3", "identifier": "soh"}]}, {"id": "akab1248", "name": "Akabo", "latitude": 12.3629, "longitude": 92.8011, "identifiers": [{"type": "iso639-3", "identifier": "akm"}]}, {"id": "akab1249", "name": "Akabea", "latitude": 12.3782, "longitude": 92.7818, "identifiers": [{"type": "iso639-3", "identifier": "abj"}]}, {"id": "akab1250", "name": "Akabafa", "latitude": null, "longitude": null, "identifiers": []}, {"id": "akac1240", "name": "Akacari", "latitude": 13.49086, "longitude": 92.94855, "identifiers": [{"type": "iso639-3", "identifier": "aci"}]}, {"id": "akaj1239", "name": "Akajeru", "latitude": 13.1525, "longitude": 92.9504, "identifiers": [{"type": "iso639-3", "identifier": "akj"}]}, {"id": "akak1251", "name": "Akakora", "latitude": 12.0944, "longitude": 92.7466, "identifiers": [{"type": "iso639-3", "identifier": "ack"}]}, {"id": "akak1252", "name": "Akakede", "latitude": 12.8494, "longitude": 92.8227, "identifiers": [{"type": "iso639-3", "identifier": "akx"}]}, {"id": "akak1253", "name": "Akakol", "latitude": 12.73253, "longitude": 92.78661, "identifiers": [{"type": "iso639-3", "identifier": "aky"}]}, {"id": "akak1254", "name": "Aka-Kelo-Molo", "latitude": null, "longitude": null, "identifiers": []}, {"id": "akal1238", "name": "Aka Lel", "latitude": null, "longitude": null, "identifiers": []}, {"id": "akam1238", "name": "Akamkpa-Ejagham", "latitude": null, "longitude": null, "identifiers": []}, {"id": "akan1248", "name": "Akani", "latitude": null, "longitude": null, "identifiers": []}, {"id": "akan1250", "name": "Akan", "latitude": 6.34756, "longitude": -1.33254, "identifiers": [{"type": "iso639-3", "identifier": "aka"}]}, {"id": "akan1251", "name": "Akanic", "latitude": null, "longitude": null, "identifiers": []}, {"id": "akar1243", "name": "Akarbale", "latitude": 12.6663, "longitude": 92.8278, "identifiers": [{"type": "iso639-3", "identifier": "acl"}]}, {"id": "akar1244", "name": "Akarre", "latitude": null, "longitude": null, "identifiers": []}, {"id": "akas1241", "name": "Akassa", "latitude": null, "longitude": null, "identifiers": []}, {"id": "akas1242", "name": "Akaselem", "latitude": 8.8858, "longitude": 1.37035, "identifiers": [{"type": "iso639-3", "identifier": "aks"}]}, {"id": "akaw1239", "name": "Akawaio-Ingariko", "latitude": 6.16277, "longitude": -60.862, "identifiers": [{"type": "iso639-3", "identifier": "ake"}]}, {"id": "akaw1241", "name": "Akawaio", "latitude": null, "longitude": null, "identifiers": []}, {"id": "akeb1238", "name": "Akebu", "latitude": 7.78365, "longitude": 0.77668, "identifiers": [{"type": "iso639-3", "identifier": "keu"}]}, {"id": "akee1238", "name": "Akye", "latitude": 8.59543, "longitude": 8.75768, "identifiers": [{"type": "iso639-3", "identifier": "aik"}]}, {"id": "akei1237", "name": "Akei", "latitude": -15.6377, "longitude": 166.767, "identifiers": [{"type": "iso639-3", "identifier": "tsr"}]}, {"id": "akel1234", "name": "Akeleic", "latitude": null, "longitude": null, "identifiers": []}, {"id": "akel1235", "name": "Akelel", "latitude": null, "longitude": null, "identifiers": []}, {"id": "aker1238", "name": "Akerre", "latitude": null, "longitude": null, "identifiers": []}, {"id": "akeu1235", "name": "Akeu", "latitude": 22.1959, "longitude": 101.0823, "identifiers": [{"type": "iso639-3", "identifier": "aeu"}]}, {"id": "akha1245", "name": "Akha", "latitude": 21.2309, "longitude": 100.964, "identifiers": [{"type": "iso639-3", "identifier": "ahk"}]}, {"id": "akha1246", "name": "Akhaic", "latitude": null, "longitude": null, "identifiers": []}, {"id": "akhm1237", "name": "Akhmimic", "latitude": null, "longitude": null, "identifiers": []}, {"id": "akho1238", "name": "Akhoe", "latitude": null, "longitude": null, "identifiers": []}, {"id": "akht1238", "name": "Akhty", "latitude": null, "longitude": null, "identifiers": []}, {"id": "akhv1239", "name": "Akhvakh", "latitude": 42.4003, "longitude": 46.3037, "identifiers": [{"type": "iso639-3", "identifier": "akv"}]}, {"id": "akib1234", "name": "Akiblik", "latitude": null, "longitude": null, "identifiers": []}, {"id": "akii1238", "name": "Aki", "latitude": null, "longitude": null, "identifiers": []}, {"id": "akim1239", "name": "Akimel O'odham", "latitude": null, "longitude": null, "identifiers": []}, {"id": "akit1240", "name": "Akita", "latitude": null, "longitude": null, "identifiers": []}, {"id": "akka1237", "name": "Akkala Saami", "latitude": 67.8625, "longitude": 32.4046, "identifiers": [{"type": "iso639-3", "identifier": "sia"}]}, {"id": "akka1240", "name": "Akkadian", "latitude": 33.1, "longitude": 44.1, "identifiers": [{"type": "iso639-3", "identifier": "akk"}]}, {"id": "akkk1240", "name": "Ak", "latitude": -3.57026, "longitude": 141.784, "identifiers": [{"type": "iso639-3", "identifier": "akq"}]}, {"id": "akla1240", "name": "Aklanon", "latitude": 11.55432, "longitude": 122.35413, "identifiers": [{"type": "iso639-3", "identifier": "akl"}]}, {"id": "akla1241", "name": "Kailibo Aklanon", "latitude": 11.5543, "longitude": 122.354, "identifiers": []}, {"id": "aknn1239", "name": "Akn", "latitude": null, "longitude": null, "identifiers": []}, {"id": "akol1237", "name": "Akolet", "latitude": -6.22711, "longitude": 150.182, "identifiers": [{"type": "iso639-3", "identifier": "akt"}]}, {"id": "akon1238", "name": "Akono", "latitude": null, "longitude": null, "identifiers": []}, {"id": "akoo1247", "name": "Ako", "latitude": null, "longitude": null, "identifiers": []}, {"id": "akoo1248", "name": "Akoose", "latitude": 4.9243, "longitude": 9.65522, "identifiers": [{"type": "iso639-3", "identifier": "bss"}]}, {"id": "akoo1249", "name": "Ako (Atlantic-Congo)", "latitude": null, "longitude": null, "identifiers": []}, {"id": "akoo1250", "name": "Ako (Indonesia)", "latitude": null, "longitude": null, "identifiers": []}, {"id": "akoy1238", "name": "Akoye", "latitude": -7.66067, "longitude": 145.669, "identifiers": [{"type": "iso639-3", "identifier": "miw"}]}, {"id": "akpa1238", "name": "Akpa", "latitude": 7.32586, "longitude": 8.01629, "identifiers": [{"type": "iso639-3", "identifier": "akf"}]}, {"id": "akpa1243", "name": "Akpafu", "latitude": null, "longitude": null, "identifiers": []}, {"id": "akpe1247", "name": "Akpe", "latitude": null, "longitude": null, "identifiers": []}, {"id": "akpe1248", "name": "Akpes", "latitude": 7.50256, "longitude": 5.95559, "identifiers": [{"type": "iso639-3", "identifier": "ibe"}]}, {"id": "akpe1249", "name": "Akpes-Edoid", "latitude": null, "longitude": null, "identifiers": []}, {"id": "akpo1242", "name": "Akpo-Mgbu-Tolu", "latitude": null, "longitude": null, "identifiers": []}, {"id": "akpo1243", "name": "Akpondu", "latitude": 9.235232, "longitude": 8.545454, "identifiers": []}, {"id": "akre1239", "name": "Akre", "latitude": null, "longitude": null, "identifiers": []}, {"id": "akru1241", "name": "Chini", "latitude": -4.88687, "longitude": 144.821, "identifiers": [{"type": "iso639-3", "identifier": "afi"}]}, {"id": "aksa1237", "name": "Wellington Kaw\u00e9sqar", "latitude": null, "longitude": null, "identifiers": []}, {"id": "akua1239", "name": "Akuapem", "latitude": null, "longitude": null, "identifiers": []}, {"id": "akuk1235", "name": "Akuku", "latitude": 7.40354, "longitude": 6.34264, "identifiers": [{"type": "iso639-3", "identifier": "ayk"}]}, {"id": "akum1238", "name": "Akum", "latitude": 6.85716, "longitude": 9.96261, "identifiers": [{"type": "iso639-3", "identifier": "aku"}]}, {"id": "akum1239", "name": "Akum-Beezen", "latitude": null, "longitude": null, "identifiers": []}, {"id": "akun1239", "name": "Akunnu", "latitude": null, "longitude": null, "identifiers": []}, {"id": "akun1241", "name": "Akuntsu", "latitude": -12.8322, "longitude": -60.9716, "identifiers": [{"type": "iso639-3", "identifier": "aqz"}]}, {"id": "akun1243", "name": "Corumbiara", "latitude": null, "longitude": null, "identifiers": []}, {"id": "akur1238", "name": "Akurio", "latitude": 3.19607, "longitude": -55.6294, "identifiers": [{"type": "iso639-3", "identifier": "ako"}]}, {"id": "akus1238", "name": "Akusha", "latitude": null, "longitude": null, "identifiers": []}, {"id": "akwa1247", "name": "Akwa (Nigeria)", "latitude": null, "longitude": null, "identifiers": []}, {"id": "akwa1248", "name": "Akwa", "latitude": -0.39897, "longitude": 15.4623, "identifiers": [{"type": "iso639-3", "identifier": "akw"}]}, {"id": "akwa1249", "name": "Akwanga", "latitude": null, "longitude": null, "identifiers": []}, {"id": "akya1234", "name": "Akyaung Ari Naga", "latitude": null, "longitude": null, "identifiers": [{"type": "iso639-3", "identifier": "nqy"}]}, {"id": "akye1239", "name": "Akyem Bosome", "latitude": null, "longitude": null, "identifiers": []}, {"id": "alab1237", "name": "Alabama", "latitude": 30.76738, "longitude": -94.62848, "identifiers": [{"type": "iso639-3", "identifier": "akz"}]}, {"id": "alab1246", "name": "Alabat Island Agta", "latitude": 14.1217, "longitude": 122.014, "identifiers": [{"type": "iso639-3", "identifier": "dul"}]}, {"id": "alab1247", "name": "Alabaman-Koasati", "latitude": null, "longitude": null, "identifiers": []}, {"id": "alab1254", "name": "Alaba-K'abeena", "latitude": 7.39014, "longitude": 38.1732, "identifiers": [{"type": "iso639-3", "identifier": "alw"}]}, {"id": "alab1255", "name": "Alabat-Manide Agta", "latitude": null, "longitude": null, "identifiers": []}, {"id": "alab1256", "name": "Alabugat Tatar", "latitude": 43.59, "longitude": 46.66, "identifiers": []}, {"id": "alac1239", "name": "Alacalufe-Austral", "latitude": -54.788017, "longitude": -70.140381, "identifiers": []}, {"id": "alac1240", "name": "Alacalufe-Central", "latitude": -53.435719, "longitude": -71.04126, "identifiers": []}, {"id": "alac1244", "name": "Alacatlatzala Mixtec", "latitude": 17.25, "longitude": -98.58, "identifiers": [{"type": "iso639-3", "identifier": "mim"}]}, {"id": "alad1239", "name": "Alada", "latitude": null, "longitude": null, "identifiers": []}, {"id": "alag1242", "name": "Alago", "latitude": 8.34986, "longitude": 8.52085, "identifiers": [{"type": "iso639-3", "identifier": "ala"}]}, {"id": "alag1243", "name": "Alag-Bako", "latitude": null, "longitude": null, "identifiers": []}, {"id": "alag1248", "name": "Alagwa", "latitude": -4.64148, "longitude": 35.7231, "identifiers": [{"type": "iso639-3", "identifier": "wbj"}]}, {"id": "alag1249", "name": "Alaguilac", "latitude": null, "longitude": null, "identifiers": []}, {"id": "alak1252", "name": "Alakong", "latitude": null, "longitude": null, "identifiers": []}, {"id": "alak1253", "name": "Alak", "latitude": 15.5565, "longitude": 106.597, "identifiers": [{"type": "iso639-3", "identifier": "alk"}]}, {"id": "alak1254", "name": "Alakaman", "latitude": null, "longitude": null, "identifiers": []}, {"id": "alam1246", "name": "Alamblak", "latitude": -4.66307, "longitude": 143.316, "identifiers": [{"type": "iso639-3", "identifier": "amp"}]}, {"id": "alan1247", "name": "\u00c5land Islands Swedish", "latitude": 60.2151, "longitude": 19.9422, "identifiers": []}, {"id": "alan1248", "name": "Alangua", "latitude": null, "longitude": null, "identifiers": []}, {"id": "alan1249", "name": "Alangan", "latitude": 13.0982, "longitude": 121.022, "identifiers": [{"type": "iso639-3", "identifier": "alj"}]}, {"id": "alan1250", "name": "Alango", "latitude": null, "longitude": null, "identifiers": []}, {"id": "alap1235", "name": "Alapmunte", "latitude": -12.329886, "longitude": -59.996702, "identifiers": [{"type": "iso639-3", "identifier": "apv"}]}, {"id": "alar1239", "name": "Alar", "latitude": null, "longitude": null, "identifiers": []}, {"id": "alas1253", "name": "Alasai", "latitude": null, "longitude": null, "identifiers": []}, {"id": "alas1254", "name": "Alas", "latitude": null, "longitude": null, "identifiers": []}, {"id": "alas1256", "name": "Alasha Oirad", "latitude": null, "longitude": null, "identifiers": []}, {"id": "alas1257", "name": "Alaskan Kutchin", "latitude": null, "longitude": null, "identifiers": []}, {"id": "alat1245", "name": "Alatening", "latitude": null, "longitude": null, "identifiers": []}, {"id": "alat1246", "name": "Alatesu", "latitude": null, "longitude": null, "identifiers": []}, {"id": "alaw1244", "name": "Alawa", "latitude": -15.5458, "longitude": 134.282, "identifiers": [{"type": "iso639-3", "identifier": "alh"}]}, {"id": "alay1234", "name": "Alaya-Athima", "latitude": null, "longitude": null, "identifiers": []}, {"id": "alba1267", "name": "Albanian", "latitude": null, "longitude": null, "identifiers": [{"type": "iso639-3", "identifier": "sqi"}]}, {"id": "alba1268", "name": "Albanian-Tosk", "latitude": null, "longitude": null, "identifiers": []}, {"id": "alba1269", "name": "Inland-Buhi-Daraga Bikol", "latitude": 13.1989, "longitude": 123.49, "identifiers": [{"type": "iso639-3", "identifier": "bhk"}]}, {"id": "alba1270", "name": "Albany River Ojibwa", "latitude": null, "longitude": null, "identifiers": []}, {"id": "alba1271", "name": "Albanian Sign Language", "latitude": 41.328889, "longitude": 19.817778, "identifiers": [{"type": "iso639-3", "identifier": "sqk"}]}, {"id": "alba1272", "name": "Albatross Bay", "latitude": null, "longitude": null, "identifiers": []}, {"id": "alba1273", "name": "Albarradas Sign Language", "latitude": 17.06144, "longitude": -96.29642, "identifiers": [{"type": "iso639-3", "identifier": "lsc"}]}, {"id": "alca1237", "name": "Alcantaranon", "latitude": null, "longitude": null, "identifiers": []}, {"id": "alca1238", "name": "Alcantara Aklanon", "latitude": null, "longitude": null, "identifiers": []}, {"id": "alco1235", "name": "Alcozauca Mixtec", "latitude": 17.3687, "longitude": -98.3969, "identifiers": [{"type": "iso639-3", "identifier": "xta"}]}, {"id": "alec1238", "name": "Alechuxa", "latitude": null, "longitude": null, "identifiers": []}, {"id": "aleg1238", "name": "Alege", "latitude": 6.59423, "longitude": 9.00394, "identifiers": [{"type": "iso639-3", "identifier": "alf"}]}, {"id": "alek1238", "name": "Alekano", "latitude": -6.03901, "longitude": 145.387, "identifiers": [{"type": "iso639-3", "identifier": "gah"}]}, {"id": "alem1243", "name": "Alemannic", "latitude": null, "longitude": null, "identifiers": []}, {"id": "alep1237", "name": "Alepa", "latitude": null, "longitude": null, "identifiers": []}, {"id": "alep1241", "name": "Aleppo", "latitude": null, "longitude": null, "identifiers": []}, {"id": "alep1242", "name": "Aleppo Kurmanji", "latitude": null, "longitude": null, "identifiers": []}, {"id": "aleu1260", "name": "Aleut", "latitude": 52.1228, "longitude": -174.29, "identifiers": [{"type": "iso639-3", "identifier": "ale"}]}, {"id": "aleu1261", "name": "Aleutic", "latitude": null, "longitude": null, "identifiers": []}, {"id": "alew1234", "name": "Alewai", "latitude": null, "longitude": null, "identifiers": []}, {"id": "alfo1240", "name": "Alfold", "latitude": null, "longitude": null, "identifiers": []}, {"id": "alga1234", "name": "'Algaden", "latitude": null, "longitude": null, "identifiers": []}, {"id": "alge1235", "name": "Algerian Sign Language", "latitude": 36.4762, "longitude": 3.5462, "identifiers": [{"type": "iso639-3", "identifier": "asp"}]}, {"id": "alge1239", "name": "Algerian Arabic", "latitude": 35.4208, "longitude": 3.23033, "identifiers": [{"type": "iso639-3", "identifier": "arq"}]}, {"id": "alge1240", "name": "Algerian Saharan Arabic", "latitude": 20.8884, "longitude": 4.80626, "identifiers": [{"type": "iso639-3", "identifier": "aao"}]}, {"id": "alge1241", "name": "Alger Judeo-Arabic", "latitude": null, "longitude": null, "identifiers": []}, {"id": "algh1238", "name": "Algherese", "latitude": 40.56432, "longitude": 8.32867, "identifiers": []}, {"id": "algi1247", "name": "Algiers", "latitude": null, "longitude": null, "identifiers": []}, {"id": "algi1248", "name": "Algic", "latitude": null, "longitude": null, "identifiers": []}, {"id": "algo1255", "name": "Algonquin", "latitude": 47.3876, "longitude": -77.5258, "identifiers": [{"type": "iso639-3", "identifier": "alq"}]}, {"id": "algo1256", "name": "Algonquian-Blackfoot", "latitude": null, "longitude": null, "identifiers": []}, {"id": "algo1257", "name": "Algonquian", "latitude": null, "longitude": null, "identifiers": []}, {"id": "alha1241", "name": "Al-Hasaa", "latitude": null, "longitude": null, "identifiers": []}, {"id": "alha1242", "name": "Al-Has\u00e2", "latitude": null, "longitude": null, "identifiers": []}, {"id": "alia1238", "name": "Aliap", "latitude": null, "longitude": null, "identifiers": []}, {"id": "alif1238", "name": "Alifokpa", "latitude": null, "longitude": null, "identifiers": []}, {"id": "alig1238", "name": "Aligarh", "latitude": null, "longitude": null, "identifiers": []}, {"id": "alii1240", "name": "Ali", "latitude": 4.60014, "longitude": 18.0352, "identifiers": [{"type": "iso639-3", "identifier": "aiy"}]}, {"id": "alii1241", "name": "Ali (Papua New Guinea)", "latitude": null, "longitude": null, "identifiers": []}, {"id": "alil1239", "name": "Alile", "latitude": null, "longitude": null, "identifiers": []}, {"id": "alin1238", "name": "Alingar", "latitude": null, "longitude": null, "identifiers": []}, {"id": "alip1234", "name": "Alipur Sign Language", "latitude": 16.843564, "longitude": 77.107525, "identifiers": []}, {"id": "alit1234", "name": "Ali-Tumleo", "latitude": null, "longitude": null, "identifiers": []}, {"id": "aliw1234", "name": "Aliwal North", "latitude": null, "longitude": null, "identifiers": []}, {"id": "alla1246", "name": "Allagir", "latitude": null, "longitude": null, "identifiers": []}, {"id": "alla1247", "name": "Allar", "latitude": 11.0803, "longitude": 76.6593, "identifiers": [{"type": "iso639-3", "identifier": "all"}]}, {"id": "alla1248", "name": "Alladian", "latitude": 5.22371, "longitude": -4.42647, "identifiers": [{"type": "iso639-3", "identifier": "ald"}]}, {"id": "alla1249", "name": "Allang", "latitude": null, "longitude": null, "identifiers": []}, {"id": "alla1250", "name": "Allaikha", "latitude": null, "longitude": null, "identifiers": []}, {"id": "alle1238", "name": "Allentiac", "latitude": -33.480938, "longitude": -68.096924, "identifiers": []}, {"id": "alll1234", "name": "\u00c5l", "latitude": null, "longitude": null, "identifiers": []}, {"id": "almu1234", "name": "al-Murrah-Ajman", "latitude": null, "longitude": null, "identifiers": []}, {"id": "alng1239", "name": "Alngith", "latitude": -12.5324, "longitude": 141.938, "identifiers": [{"type": "iso639-3", "identifier": "aid"}]}, {"id": "aloa1235", "name": "Alo\u00e1pam Zapotec", "latitude": 17.4137, "longitude": -96.7438, "identifiers": [{"type": "iso639-3", "identifier": "zaq"}]}, {"id": "aloa1239", "name": "Aloa", "latitude": null, "longitude": null, "identifiers": []}, {"id": "alop1235", "name": "Alo Phola", "latitude": 23.59, "longitude": 101.933, "identifiers": [{"type": "iso639-3", "identifier": "ypo"}]}, {"id": "alor1246", "name": "Alor (Nilotic)", "latitude": null, "longitude": null, "identifiers": []}, {"id": "alor1247", "name": "Alorese", "latitude": -8.20382, "longitude": 124.264, "identifiers": [{"type": "iso639-3", "identifier": "aol"}]}, {"id": "alor1249", "name": "Alor-Pantar", "latitude": null, "longitude": null, "identifiers": []}, {"id": "alor1250", "name": "Alor", "latitude": null, "longitude": null, "identifiers": []}, {"id": "alor1252", "name": "Alor Malay", "latitude": null, "longitude": null, "identifiers": []}, {"id": "alpi1238", "name": "Alpine Lombard", "latitude": null, "longitude": null, "identifiers": []}, {"id": "alqo1238", "name": "Christian Alqosh", "latitude": null, "longitude": null, "identifiers": []}, {"id": "alsa1241", "name": "Alsatian", "latitude": null, "longitude": null, "identifiers": []}, {"id": "alsa1242", "name": "Al-Sayyid Bedouin Sign Language", "latitude": 31.284444, "longitude": 34.916111, "identifiers": [{"type": "iso639-3", "identifier": "syy"}]}, {"id": "alse1251", "name": "Alsea-Yaquina", "latitude": 44.408, "longitude": -123.94, "identifiers": [{"type": "iso639-3", "identifier": "aes"}]}, {"id": "alse1252", "name": "Alsea", "latitude": null, "longitude": null, "identifiers": []}, {"id": "alta1277", "name": "Altai-Kizi", "latitude": null, "longitude": null, "identifiers": []}, {"id": "alta1279", "name": "Altai Torguud", "latitude": null, "longitude": null, "identifiers": []}, {"id": "alta1280", "name": "Altai Uriankhai", "latitude": null, "longitude": null, "identifiers": []}, {"id": "alto1237", "name": "Alto Navarro Meridional", "latitude": null, "longitude": null, "identifiers": []}, {"id": "alto1238", "name": "Alto Navarro Septentrional", "latitude": null, "longitude": null, "identifiers": []}, {"id": "alto1249", "name": "Alto Orinoco", "latitude": null, "longitude": null, "identifiers": []}, {"id": "alto1250", "name": "Medio Rio Negro", "latitude": null, "longitude": null, "identifiers": []}, {"id": "alts1234", "name": "Alts\u00e4chsisch", "latitude": null, "longitude": null, "identifiers": []}, {"id": "alug1235", "name": "Alugu", "latitude": 23.0, "longitude": 103.0, "identifiers": [{"type": "iso639-3", "identifier": "aub"}]}, {"id": "aluk1238", "name": "Alu Kurumba", "latitude": 11.3456, "longitude": 76.7995, "identifiers": [{"type": "iso639-3", "identifier": "xua"}]}, {"id": "aluk1239", "name": "Aluku", "latitude": null, "longitude": null, "identifiers": []}, {"id": "alum1246", "name": "Arum", "latitude": 9.01513, "longitude": 8.55956, "identifiers": [{"type": "iso639-3", "identifier": "aab"}]}, {"id": "alum1247", "name": "Alumu", "latitude": null, "longitude": null, "identifiers": []}, {"id": "alum1248", "name": "Alumbis", "latitude": null, "longitude": null, "identifiers": []}, {"id": "alum1249", "name": "Alumic", "latitude": null, "longitude": null, "identifiers": []}, {"id": "alum1250", "name": "Alumu-Toro", "latitude": null, "longitude": null, "identifiers": []}, {"id": "alum1251", "name": "Alumu-Akpondu", "latitude": null, "longitude": null, "identifiers": []}, {"id": "alun1238", "name": "Alune", "latitude": -3.11477, "longitude": 128.394, "identifiers": [{"type": "iso639-3", "identifier": "alp"}]}, {"id": "aluo1235", "name": "Aluo", "latitude": 26.0, "longitude": 102.0, "identifiers": [{"type": "iso639-3", "identifier": "yna"}]}, {"id": "alur1249", "name": "Aluru", "latitude": null, "longitude": null, "identifiers": []}, {"id": "alur1250", "name": "Alur", "latitude": 2.36213, "longitude": 31.0016, "identifiers": [{"type": "iso639-3", "identifier": "alz"}]}, {"id": "alut1245", "name": "Alutor", "latitude": 60.3844, "longitude": 165.653, "identifiers": [{"type": "iso639-3", "identifier": "alr"}]}, {"id": "alut1246", "name": "Alutorskij", "latitude": null, "longitude": null, "identifiers": []}, {"id": "aluu1242", "name": "Aluu", "latitude": null, "longitude": null, "identifiers": []}, {"id": "aluu1243", "name": "Alu", "latitude": null, "longitude": null, "identifiers": []}, {"id": "alvi1241", "name": "Alviri-Vidari", "latitude": 35.0075, "longitude": 50.3794, "identifiers": [{"type": "iso639-3", "identifier": "avd"}]}, {"id": "alvi1242", "name": "Alvir", "latitude": null, "longitude": null, "identifiers": []}, {"id": "alya1239", "name": "Alyawarr", "latitude": -21.0427, "longitude": 136.835, "identifiers": [{"type": "iso639-3", "identifier": "aly"}]}, {"id": "alyk1238", "name": "Alyk", "latitude": null, "longitude": null, "identifiers": []}, {"id": "amab1234", "name": "Amabi", "latitude": null, "longitude": null, "identifiers": []}, {"id": "amad1240", "name": "Amadiye Kurdish", "latitude": null, "longitude": null, "identifiers": []}, {"id": "amad1244", "name": "Amadiya Jewish Neo-Aramaic", "latitude": null, "longitude": null, "identifiers": []}, {"id": "amah1245", "name": "Amahai", "latitude": -3.32028, "longitude": 128.939, "identifiers": [{"type": "iso639-3", "identifier": "amq"}]}, {"id": "amah1246", "name": "Amahuaca", "latitude": -10.2012, "longitude": -72.3208, "identifiers": [{"type": "iso639-3", "identifier": "amc"}]}, {"id": "amai1246", "name": "Amaimon", "latitude": -5.18742, "longitude": 145.368, "identifiers": [{"type": "iso639-3", "identifier": "ali"}]}, {"id": "amai1247", "name": "Amaizuho", "latitude": null, "longitude": null, "identifiers": []}, {"id": "amal1242", "name": "Amal", "latitude": -4.04517, "longitude": 141.995, "identifiers": [{"type": "iso639-3", "identifier": "aad"}]}, {"id": "amal1243", "name": "Amalumute", "latitude": null, "longitude": null, "identifiers": []}, {"id": "amam1245", "name": "Amami", "latitude": null, "longitude": null, "identifiers": []}, {"id": "amam1246", "name": "Amam", "latitude": -7.9, "longitude": 146.92, "identifiers": []}, {"id": "amam1247", "name": "Amami O Shima Sign Language", "latitude": 28.268372, "longitude": 129.358991, "identifiers": [{"type": "iso639-3", "identifier": "jks"}]}, {"id": "aman1261", "name": "Amanda-Afi", "latitude": null, "longitude": null, "identifiers": []}, {"id": "aman1262", "name": "Amanavil", "latitude": null, "longitude": null, "identifiers": []}, {"id": "aman1263", "name": "Amana", "latitude": null, "longitude": null, "identifiers": []}, {"id": "aman1264", "name": "Amanuban-Amanatun", "latitude": null, "longitude": null, "identifiers": []}, {"id": "aman1265", "name": "Amanab", "latitude": -3.51516, "longitude": 141.178, "identifiers": [{"type": "iso639-3", "identifier": "amn"}]}, {"id": "aman1266", "name": "Amanay\u00e9", "latitude": -3.79772, "longitude": -48.6613, "identifiers": [{"type": "iso639-3", "identifier": "ama"}]}, {"id": "amap1240", "name": "Ama (Papua New Guinea)", "latitude": -4.20192, "longitude": 141.658, "identifiers": [{"type": "iso639-3", "identifier": "amm"}]}, {"id": "amap1241", "name": "Amap\u00e1 Creole", "latitude": null, "longitude": null, "identifiers": [{"type": "iso639-3", "identifier": "amd"}]}, {"id": "amar1241", "name": "Amariba", "latitude": null, "longitude": null, "identifiers": []}, {"id": "amar1271", "name": "Amurdak", "latitude": -11.9876, "longitude": 132.878, "identifiers": [{"type": "iso639-3", "identifier": "amg"}]}, {"id": "amar1272", "name": "Amara", "latitude": -5.55778, "longitude": 148.68, "identifiers": [{"type": "iso639-3", "identifier": "aie"}]}, {"id": "amar1273", "name": "Amarasi", "latitude": -10.21751, "longitude": 123.96373, "identifiers": [{"type": "iso639-3", "identifier": "aaz"}]}, {"id": "amar1274", "name": "Amarakaeri", "latitude": -12.4931, "longitude": -70.5533, "identifiers": [{"type": "iso639-3", "identifier": "amr"}]}, {"id": "amar1275", "name": "Amaruwa", "latitude": null, "longitude": null, "identifiers": []}, {"id": "amar1281", "name": "Amara (Beja)", "latitude": null, "longitude": null, "identifiers": []}, {"id": "amas1236", "name": "Ama (Sudan)", "latitude": 12.0993, "longitude": 29.4332, "identifiers": [{"type": "iso639-3", "identifier": "nyi"}]}, {"id": "amat1238", "name": "Amatl\u00e1n Zapotec", "latitude": 16.2707, "longitude": -96.4003, "identifiers": [{"type": "iso639-3", "identifier": "zpo"}]}, {"id": "amat1239", "name": "Amatecano", "latitude": null, "longitude": null, "identifiers": []}, {"id": "amay1238", "name": "Amayo", "latitude": null, "longitude": null, "identifiers": []}, {"id": "amba1263", "name": "Amba (Uganda)", "latitude": 0.81206, "longitude": 30.0014, "identifiers": [{"type": "iso639-3", "identifier": "rwm"}]}, {"id": "amba1264", "name": "Ambawang", "latitude": null, "longitude": null, "identifiers": []}, {"id": "amba1265", "name": "Ambai", "latitude": -1.88126, "longitude": 136.526, "identifiers": [{"type": "iso639-3", "identifier": "amk"}]}, {"id": "amba1266", "name": "Amba (Solomon Islands)", "latitude": -11.2958, "longitude": 166.498, "identifiers": [{"type": "iso639-3", "identifier": "utp"}]}, {"id": "amba1267", "name": "Ambala Ayta", "latitude": 14.8156, "longitude": 120.283, "identifiers": [{"type": "iso639-3", "identifier": "abc"}]}, {"id": "amba1268", "name": "Ambasi", "latitude": null, "longitude": null, "identifiers": []}, {"id": "amba1269", "name": "Ambakich", "latitude": -4.23181, "longitude": 144.285, "identifiers": [{"type": "iso639-3", "identifier": "aew"}]}, {"id": "amba1270", "name": "Ambae", "latitude": null, "longitude": null, "identifiers": []}, {"id": "ambe1246", "name": "Ambermo", "latitude": -1.763355, "longitude": 137.903651, "identifiers": []}, {"id": "ambe1247", "name": "Ambele", "latitude": 5.94043, "longitude": 9.62028, "identifiers": [{"type": "iso639-3", "identifier": "ael"}]}, {"id": "ambe1248", "name": "Ambelau", "latitude": -3.85919, "longitude": 127.196, "identifiers": [{"type": "iso639-3", "identifier": "amv"}]}, {"id": "ambe1249", "name": "Ambel-Biga", "latitude": null, "longitude": null, "identifiers": []}, {"id": "ambl1237", "name": "Amblong", "latitude": -15.5169, "longitude": 166.95, "identifiers": [{"type": "iso639-3", "identifier": "alm"}]}, {"id": "ambo1247", "name": "Ambodi", "latitude": null, "longitude": null, "identifiers": []}, {"id": "ambo1248", "name": "Ambo (Lala-Bisa)", "latitude": null, "longitude": null, "identifiers": []}, {"id": "ambo1249", "name": "Ambo", "latitude": 7.07637, "longitude": 10.7798, "identifiers": [{"type": "iso639-3", "identifier": "amb"}]}, {"id": "ambo1250", "name": "Ambonese Malay", "latitude": -3.71342, "longitude": 128.184, "identifiers": [{"type": "iso639-3", "identifier": "abs"}]}, {"id": "ambo1252", "name": "Ambo-Pasco Quechua", "latitude": -10.5138, "longitude": -76.1135, "identifiers": [{"type": "iso639-3", "identifier": "qva"}]}, {"id": "ambo1253", "name": "Ambonic Malay", "latitude": null, "longitude": null, "identifiers": []}, {"id": "ambo1254", "name": "Ambonic", "latitude": null, "longitude": null, "identifiers": []}, {"id": "ambo1255", "name": "Ambon Malay", "latitude": null, "longitude": null, "identifiers": []}, {"id": "ambr1239", "name": "Ambrak", "latitude": -3.61, "longitude": 142.56, "identifiers": [{"type": "iso639-3", "identifier": "aag"}]}, {"id": "ambr1240", "name": "Ambrym", "latitude": null, "longitude": null, "identifiers": []}, {"id": "ambu1244", "name": "Ambumi", "latitude": null, "longitude": null, "identifiers": []}, {"id": "ambu1245", "name": "Ambual", "latitude": null, "longitude": null, "identifiers": []}, {"id": "ambu1246", "name": "Ambulas-Hanga-Hundi", "latitude": null, "longitude": null, "identifiers": []}, {"id": "ambu1247", "name": "Ambulas", "latitude": -3.7801, "longitude": 143.059, "identifiers": [{"type": "iso639-3", "identifier": "abt"}]}, {"id": "amda1238", "name": "Amdang", "latitude": 14.7528, "longitude": 20.8912, "identifiers": [{"type": "iso639-3", "identifier": "amj"}]}, {"id": "amdo1237", "name": "Amdo Tibetan", "latitude": 34.5177, "longitude": 100.485, "identifiers": [{"type": "iso639-3", "identifier": "adx"}]}, {"id": "amdo1238", "name": "Amdo of Hor", "latitude": null, "longitude": null, "identifiers": []}, {"id": "amel1241", "name": "Amele", "latitude": -5.29126, "longitude": 145.687, "identifiers": [{"type": "iso639-3", "identifier": "aey"}]}, {"id": "amem1235", "name": "Ame-Manda", "latitude": null, "longitude": null, "identifiers": []}, {"id": "amen1242", "name": "Amenfi", "latitude": null, "longitude": null, "identifiers": []}, {"id": "amen1243", "name": "Amengi", "latitude": null, "longitude": null, "identifiers": []}, {"id": "amer1248", "name": "American Sign Language", "latitude": 33.8117, "longitude": -81.6121, "identifiers": [{"type": "iso639-3", "identifier": "ase"}]}, {"id": "amer1254", "name": "Latin American Spanish", "latitude": null, "longitude": null, "identifiers": []}, {"id": "amer1255", "name": "American Indian Pidgin English", "latitude": null, "longitude": null, "identifiers": []}, {"id": "amer1256", "name": "Amerax", "latitude": null, "longitude": null, "identifiers": [{"type": "iso639-3", "identifier": "aex"}]}, {"id": "amer1258", "name": "American Sign", "latitude": null, "longitude": null, "identifiers": []}, {"id": "amer1259", "name": "American Inland South English", "latitude": null, "longitude": null, "identifiers": []}, {"id": "amer1260", "name": "American Sign Language in the USA", "latitude": null, "longitude": null, "identifiers": []}, {"id": "amfo1237", "name": "Amfoan-Fatule'u", "latitude": null, "longitude": null, "identifiers": []}, {"id": "amga1235", "name": "Amganad Ifugao", "latitude": 16.9016, "longitude": 121.042, "identifiers": [{"type": "iso639-3", "identifier": "ifa"}]}, {"id": "amha1244", "name": "Amharic-Argobba", "latitude": null, "longitude": null, "identifiers": []}, {"id": "amha1245", "name": "Amharic", "latitude": 11.708182, "longitude": 39.543456, "identifiers": [{"type": "iso639-3", "identifier": "amh"}]}, {"id": "amie1238", "name": "Amienois", "latitude": null, "longitude": null, "identifiers": []}, {"id": "amii1238", "name": "Ami", "latitude": -13.5573, "longitude": 130.04, "identifiers": [{"type": "iso639-3", "identifier": "amy"}]}, {"id": "amik1238", "name": "Amikoana", "latitude": null, "longitude": null, "identifiers": [{"type": "iso639-3", "identifier": "akn"}]}, {"id": "amis1245", "name": "Amish Pennsylvania German", "latitude": null, "longitude": null, "identifiers": []}, {"id": "amis1246", "name": "Amis", "latitude": 23.0917, "longitude": 121.348, "identifiers": [{"type": "iso639-3", "identifier": "ami"}]}, {"id": "ammo1234", "name": "Ammonite", "latitude": null, "longitude": null, "identifiers": [{"type": "iso639-3", "identifier": "qgg"}]}, {"id": "amoi1234", "name": "Amoipira", "latitude": null, "longitude": null, "identifiers": []}, {"id": "amol1235", "name": "Mol", "latitude": -3.46843, "longitude": 142.532, "identifiers": [{"type": "iso639-3", "identifier": "alx"}]}, {"id": "amol1236", "name": "Amoltepec Mixtec", "latitude": 16.6521, "longitude": -97.4518, "identifiers": [{"type": "iso639-3", "identifier": "mbz"}]}, {"id": "amon1239", "name": "Amongme", "latitude": null, "longitude": null, "identifiers": []}, {"id": "amon1240", "name": "Amondava-Uru-Eu-Wau-Wau", "latitude": null, "longitude": null, "identifiers": []}, {"id": "amoo1242", "name": "Amo", "latitude": 10.3229, "longitude": 8.65405, "identifiers": [{"type": "iso639-3", "identifier": "amo"}]}, {"id": "amor1238", "name": "Amorua", "latitude": null, "longitude": null, "identifiers": []}, {"id": "amor1239", "name": "Amorite", "latitude": 34.71, "longitude": 40.72, "identifiers": []}, {"id": "amor1240", "name": "Amorei", "latitude": null, "longitude": null, "identifiers": []}, {"id": "amot1239", "name": "Amotomanco", "latitude": null, "longitude": null, "identifiers": []}, {"id": "amot1240", "name": "Amota", "latitude": null, "longitude": null, "identifiers": []}, {"id": "amou1238", "name": "Amou Oblou", "latitude": null, "longitude": null, "identifiers": []}, {"id": "ampa1238", "name": "Ampari Dogon", "latitude": 14.15, "longitude": -3.55, "identifiers": [{"type": "iso639-3", "identifier": "aqd"}]}, {"id": "ampa1239", "name": "Ampanang", "latitude": -0.79259, "longitude": 116.349, "identifiers": [{"type": "iso639-3", "identifier": "apg"}]}, {"id": "ampe1238", "name": "Ampezzano", "latitude": null, "longitude": null, "identifiers": []}, {"id": "ampi1237", "name": "Ampibabo", "latitude": null, "longitude": null, "identifiers": []}, {"id": "ampi1238", "name": "Ampiini", "latitude": null, "longitude": null, "identifiers": []}, {"id": "amra1237", "name": "Amravati", "latitude": null, "longitude": null, "identifiers": []}, {"id": "amri1238", "name": "Amri Karbi", "latitude": 26.024, "longitude": 91.482, "identifiers": [{"type": "iso639-3", "identifier": "ajz"}]}, {"id": "amru1234", "name": "Amrum", "latitude": null, "longitude": null, "identifiers": []}, {"id": "amto1249", "name": "Amto-Musan", "latitude": null, "longitude": null, "identifiers": []}, {"id": "amto1250", "name": "Amto", "latitude": -4.12165, "longitude": 141.339, "identifiers": [{"type": "iso639-3", "identifier": "amt"}]}, {"id": "amtr1234", "name": "Am Trakt-Alexandertal", "latitude": null, "longitude": null, "identifiers": []}, {"id": "amub1238", "name": "Amubre-Katsi", "latitude": null, "longitude": null, "identifiers": []}, {"id": "amug1239", "name": "Amugen", "latitude": null, "longitude": null, "identifiers": []}, {"id": "amun1244", "name": "Amun", "latitude": null, "longitude": null, "identifiers": []}, {"id": "amun1245", "name": "Amung", "latitude": null, "longitude": null, "identifiers": []}, {"id": "amun1246", "name": "Amundava", "latitude": -9.04023, "longitude": -62.3064, "identifiers": [{"type": "iso639-3", "identifier": "adw"}]}, {"id": "amur1242", "name": "Amur-West Sakhalin Nivkh", "latitude": null, "longitude": null, "identifiers": []}, {"id": "amur1243", "name": "Amuru", "latitude": null, "longitude": null, "identifiers": []}, {"id": "amur1244", "name": "Amur basin Solon", "latitude": null, "longitude": null, "identifiers": []}, {"id": "amuu1238", "name": "Amu", "latitude": null, "longitude": null, "identifiers": []}, {"id": "amux1234", "name": "Amux", "latitude": null, "longitude": null, "identifiers": []}, {"id": "amuz1253", "name": "Amuzgo-Mixtecan", "latitude": null, "longitude": null, "identifiers": []}, {"id": "amuz1254", "name": "Amuzgoan", "latitude": null, "longitude": null, "identifiers": []}, {"id": "anaa1238", "name": "Anaang", "latitude": 4.94832, "longitude": 7.57969, "identifiers": [{"type": "iso639-3", "identifier": "anw"}]}, {"id": "anaa1239", "name": "Ana", "latitude": null, "longitude": null, "identifiers": []}, {"id": "anak1240", "name": "Anakalangu", "latitude": -9.63425, "longitude": 119.605, "identifiers": [{"type": "iso639-3", "identifier": "akg"}]}, {"id": "anal1239", "name": "Anal", "latitude": 24.0506, "longitude": 94.2806, "identifiers": [{"type": "iso639-3", "identifier": "anm"}]}, {"id": "anal1240", "name": "Anal-Lamgang", "latitude": null, "longitude": null, "identifiers": []}, {"id": "anam1247", "name": "Anam", "latitude": -4.68869, "longitude": 145.051, "identifiers": [{"type": "iso639-3", "identifier": "pda"}]}, {"id": "anam1248", "name": "Anamuxra", "latitude": -4.63762, "longitude": 144.991, "identifiers": [{"type": "iso639-3", "identifier": "imi"}]}, {"id": "anam1249", "name": "Anamb\u00e9", "latitude": -2.71119, "longitude": -49.303, "identifiers": [{"type": "iso639-3", "identifier": "aan"}]}, {"id": "anam1250", "name": "Anamuxric", "latitude": null, "longitude": null, "identifiers": []}, {"id": "anam1251", "name": "Anambe of Ehrenreich", "latitude": null, "longitude": null, "identifiers": []}, {"id": "anan1238", "name": "Ananjubi", "latitude": null, "longitude": null, "identifiers": []}, {"id": "anar1241", "name": "Anarak", "latitude": null, "longitude": null, "identifiers": []}, {"id": "anar1243", "name": "Anarya", "latitude": null, "longitude": null, "identifiers": []}, {"id": "anas1239", "name": "Anasi", "latitude": -1.73908, "longitude": 137.716, "identifiers": [{"type": "iso639-3", "identifier": "bpo"}]}, {"id": "anat1247", "name": "Anatri", "latitude": null, "longitude": null, "identifiers": []}, {"id": "anat1248", "name": "Ana Tinga Dogon", "latitude": 14.6669, "longitude": -3.1168, "identifiers": [{"type": "iso639-3", "identifier": "dti"}]}, {"id": "anat1252", "name": "Anatolia", "latitude": null, "longitude": null, "identifiers": []}, {"id": "anat1256", "name": "Anatolian Cluster", "latitude": null, "longitude": null, "identifiers": []}, {"id": "anat1257", "name": "Anatolian", "latitude": null, "longitude": null, "identifiers": []}, {"id": "anat1259", "name": "Anatolian Turkish", "latitude": 39.87, "longitude": 32.87, "identifiers": []}, {"id": "anat1260", "name": "Anatolian Bulgarian", "latitude": null, "longitude": null, "identifiers": []}, {"id": "anau1242", "name": "Anauli", "latitude": null, "longitude": null, "identifiers": []}, {"id": "anau1243", "name": "Anauy\u00e1", "latitude": 1.480584, "longitude": -65.413237, "identifiers": []}, {"id": "anca1236", "name": "\u00c1nc\u00e1", "latitude": 6.66524, "longitude": 11.1087, "identifiers": [{"type": "iso639-3", "identifier": "acb"}]}, {"id": "anca1243", "name": "Ancalong Kutai", "latitude": null, "longitude": null, "identifiers": []}, {"id": "anch1238", "name": "Anchix", "latitude": null, "longitude": null, "identifiers": []}, {"id": "anch1239", "name": "Anchorite", "latitude": null, "longitude": null, "identifiers": []}, {"id": "anch1240", "name": "Ancho", "latitude": null, "longitude": null, "identifiers": []}, {"id": "anci1242", "name": "Ancient Greek", "latitude": 39.8155, "longitude": 21.9129, "identifiers": [{"type": "iso639-3", "identifier": "grc"}]}, {"id": "anci1244", "name": "Ancient Hebrew", "latitude": 31.7761, "longitude": 35.1725, "identifiers": [{"type": "iso639-3", "identifier": "hbo"}]}, {"id": "anci1245", "name": "Ancient North Arabian", "latitude": 29.044, "longitude": 39.776, "identifiers": [{"type": "iso639-3", "identifier": "xna"}]}, {"id": "anci1248", "name": "Ancient Ligurian", "latitude": null, "longitude": null, "identifiers": [{"type": "iso639-3", "identifier": "xlg"}]}, {"id": "ancu1238", "name": "Ancux", "latitude": null, "longitude": null, "identifiers": []}, {"id": "anda1279", "name": "Andalusian", "latitude": null, "longitude": null, "identifiers": []}, {"id": "anda1280", "name": "Andaman Creole Hindi", "latitude": 11.676, "longitude": 92.738, "identifiers": [{"type": "iso639-3", "identifier": "hca"}]}, {"id": "anda1281", "name": "Andalal-Gxdatl", "latitude": null, "longitude": null, "identifiers": []}, {"id": "anda1282", "name": "Andadjin", "latitude": -16.531222, "longitude": 127.693718, "identifiers": [{"type": "iso639-3", "identifier": "ajn"}]}, {"id": "anda1283", "name": "Andai", "latitude": -4.96449, "longitude": 143.637, "identifiers": [{"type": "iso639-3", "identifier": "afd"}]}, {"id": "anda1284", "name": "Andarum", "latitude": -4.48734, "longitude": 144.767, "identifiers": [{"type": "iso639-3", "identifier": "aod"}]}, {"id": "anda1285", "name": "Andahuaylas", "latitude": null, "longitude": null, "identifiers": []}, {"id": "anda1286", "name": "Andaqui", "latitude": 2.74999, "longitude": -76.0, "identifiers": [{"type": "iso639-3", "identifier": "ana"}]}, {"id": "anda1287", "name": "Andalusian Arabic", "latitude": 36.54, "longitude": -5.2, "identifiers": [{"type": "iso639-3", "identifier": "xaa"}]}, {"id": "anda1288", "name": "Andambit", "latitude": null, "longitude": null, "identifiers": []}, {"id": "ande1246", "name": "Ande", "latitude": null, "longitude": null, "identifiers": []}, {"id": "ande1247", "name": "Andegerebinha", "latitude": -22.51278, "longitude": 137.3515, "identifiers": [{"type": "iso639-3", "identifier": "adg"}]}, {"id": "ande1248", "name": "Andelale", "latitude": null, "longitude": null, "identifiers": []}, {"id": "ande1249", "name": "Andean Spanish", "latitude": null, "longitude": null, "identifiers": []}, {"id": "ande1250", "name": "Andean Bolivian Spanish", "latitude": null, "longitude": null, "identifiers": []}, {"id": "andh1241", "name": "Andhra Pradesh Lamani", "latitude": null, "longitude": null, "identifiers": []}, {"id": "andh1242", "name": "Andh", "latitude": 19.4734, "longitude": 77.7156, "identifiers": [{"type": "iso639-3", "identifier": "anr"}]}, {"id": "andh1247", "name": "Andhra Gutob", "latitude": null, "longitude": null, "identifiers": []}, {"id": "andi1253", "name": "Andimeshki", "latitude": null, "longitude": null, "identifiers": []}, {"id": "andi1254", "name": "Andic", "latitude": null, "longitude": null, "identifiers": []}, {"id": "andi1255", "name": "Andi", "latitude": 42.8078, "longitude": 46.2919, "identifiers": [{"type": "iso639-3", "identifier": "ani"}]}, {"id": "andi1256", "name": "Andinai", "latitude": null, "longitude": null, "identifiers": []}, {"id": "andi1257", "name": "Andio", "latitude": -0.88368, "longitude": 123.174, "identifiers": [{"type": "iso639-3", "identifier": "bzb"}]}, {"id": "ando1254", "name": "Andoquero", "latitude": -0.666992, "longitude": -72.310867, "identifiers": []}, {"id": "ando1255", "name": "Andoa", "latitude": -3.29664, "longitude": -76.6056, "identifiers": [{"type": "iso639-3", "identifier": "anb"}]}, {"id": "ando1256", "name": "Andoque", "latitude": -0.53751, "longitude": -72.0869, "identifiers": [{"type": "iso639-3", "identifier": "ano"}]}, {"id": "ando1257", "name": "Andoke", "latitude": null, "longitude": null, "identifiers": []}, {"id": "andr1245", "name": "Chakpa", "latitude": null, "longitude": null, "identifiers": []}, {"id": "andr1246", "name": "Andro", "latitude": 24.754303, "longitude": 94.033796, "identifiers": []}, {"id": "andr1247", "name": "Andri", "latitude": null, "longitude": null, "identifiers": []}, {"id": "andr1248", "name": "Andra-Hus", "latitude": -2.05894, "longitude": 147.085, "identifiers": [{"type": "iso639-3", "identifier": "anx"}]}, {"id": "andr1249", "name": "Andro-Sengmai", "latitude": null, "longitude": null, "identifiers": []}, {"id": "anee1234", "name": "Ane", "latitude": null, "longitude": null, "identifiers": []}, {"id": "anei1239", "name": "Aneityum", "latitude": -20.1864, "longitude": 169.825, "identifiers": [{"type": "iso639-3", "identifier": "aty"}]}, {"id": "anem1248", "name": "Aneme Wake", "latitude": -9.75911, "longitude": 148.479, "identifiers": [{"type": "iso639-3", "identifier": "aby"}]}, {"id": "anem1249", "name": "Anem", "latitude": -5.54836, "longitude": 148.993, "identifiers": [{"type": "iso639-3", "identifier": "anz"}]}, {"id": "aneu1237", "name": "Aneuk Jamee", "latitude": null, "longitude": null, "identifiers": []}, {"id": "anex1238", "name": "Anexo", "latitude": null, "longitude": null, "identifiers": []}, {"id": "anfi1235", "name": "Anfillo", "latitude": 8.568, "longitude": 34.647, "identifiers": [{"type": "iso639-3", "identifier": "myo"}]}, {"id": "anga1244", "name": "Angami-Mao", "latitude": null, "longitude": null, "identifiers": []}, {"id": "anga1286", "name": "Angami-Pochuri", "latitude": null, "longitude": null, "identifiers": []}, {"id": "anga1287", "name": "Angami-Chokri", "latitude": null, "longitude": null, "identifiers": []}, {"id": "anga1288", "name": "Angami Naga", "latitude": 25.6841, "longitude": 93.8668, "identifiers": [{"type": "iso639-3", "identifier": "njm"}]}, {"id": "anga1289", "name": "Angan", "latitude": null, "longitude": null, "identifiers": []}, {"id": "anga1290", "name": "Angaataha", "latitude": -7.15012, "longitude": 146.352, "identifiers": [{"type": "iso639-3", "identifier": "agm"}]}, {"id": "anga1291", "name": "Sau-Angal-Kewa", "latitude": null, "longitude": null, "identifiers": []}, {"id": "anga1292", "name": "Angal Heneng", "latitude": -6.13347, "longitude": 143.478, "identifiers": [{"type": "iso639-3", "identifier": "akh"}]}, {"id": "anga1293", "name": "Angal", "latitude": -6.0127, "longitude": 143.592, "identifiers": [{"type": "iso639-3", "identifier": "age"}]}, {"id": "anga1294", "name": "Angal Enen", "latitude": -6.23296, "longitude": 143.583, "identifiers": [{"type": "iso639-3", "identifier": "aoe"}]}, {"id": "anga1311", "name": "Goemaic", "latitude": null, "longitude": null, "identifiers": []}, {"id": "anga1312", "name": "Angami-Ao", "latitude": null, "longitude": null, "identifiers": []}, {"id": "anga1313", "name": "Angal-Kewa", "latitude": null, "longitude": null, "identifiers": []}, {"id": "anga1314", "name": "Angal Mendi", "latitude": null, "longitude": null, "identifiers": []}, {"id": "anga1315", "name": "Angami Naga Sign Language", "latitude": 25.896367, "longitude": 93.719062, "identifiers": []}, {"id": "anga1316", "name": "Angait\u00e9", "latitude": -22.85, "longitude": -58.45, "identifiers": [{"type": "iso639-3", "identifier": "aqt"}]}, {"id": "ange1244", "name": "Angevin", "latitude": null, "longitude": null, "identifiers": []}, {"id": "angg1238", "name": "Angkamuthi", "latitude": -11.443, "longitude": 142.242, "identifiers": [{"type": "iso639-3", "identifier": "avm"}]}, {"id": "angg1239", "name": "Angguruk Yali", "latitude": -4.0836, "longitude": 139.457, "identifiers": [{"type": "iso639-3", "identifier": "yli"}]}, {"id": "angi1238", "name": "Angika", "latitude": 26.0047, "longitude": 85.534, "identifiers": [{"type": "iso639-3", "identifier": "anp"}]}, {"id": "angi1241", "name": "Angidin", "latitude": null, "longitude": null, "identifiers": []}, {"id": "angk1246", "name": "Angkuic", "latitude": null, "longitude": null, "identifiers": []}, {"id": "angk1247", "name": "Angkiyakmin", "latitude": null, "longitude": null, "identifiers": []}, {"id": "angk1248", "name": "Angkola-Mandailing", "latitude": null, "longitude": null, "identifiers": []}, {"id": "angl1239", "name": "Archaic Angloromani", "latitude": 51.75, "longitude": -2.56, "identifiers": [{"type": "iso639-3", "identifier": "rme"}]}, {"id": "angl1242", "name": "Anglo-Saxon Monastic Sign Language", "latitude": null, "longitude": null, "identifiers": []}, {"id": "angl1258", "name": "Anglo-Norman", "latitude": null, "longitude": null, "identifiers": [{"type": "iso639-3", "identifier": "xno"}]}, {"id": "angl1262", "name": "Anlo", "latitude": null, "longitude": null, "identifiers": []}, {"id": "angl1263", "name": "Anglat Agta", "latitude": null, "longitude": null, "identifiers": []}, {"id": "angl1264", "name": "Anglo-Frisian", "latitude": null, "longitude": null, "identifiers": []}, {"id": "angl1265", "name": "Anglic", "latitude": null, "longitude": null, "identifiers": []}, {"id": "angl1266", "name": "Angluo", "latitude": null, "longitude": null, "identifiers": []}, {"id": "angl1267", "name": "Anglian", "latitude": null, "longitude": null, "identifiers": []}, {"id": "ango1253", "name": "Angole", "latitude": null, "longitude": null, "identifiers": []}, {"id": "ango1254", "name": "Angor", "latitude": -3.7167, "longitude": 141.199, "identifiers": [{"type": "iso639-3", "identifier": "agg"}]}, {"id": "ango1255", "name": "Angoram", "latitude": -4.07758, "longitude": 144.028, "identifiers": [{"type": "iso639-3", "identifier": "aog"}]}, {"id": "ango1256", "name": "Angotero", "latitude": null, "longitude": null, "identifiers": []}, {"id": "ango1257", "name": "Angosturas Tunebo", "latitude": 6.54198, "longitude": -71.9212, "identifiers": [{"type": "iso639-3", "identifier": "tnd"}]}, {"id": "ango1258", "name": "Angolar", "latitude": 0.11438, "longitude": 6.59486, "identifiers": [{"type": "iso639-3", "identifier": "aoa"}]}, {"id": "ango1259", "name": "Angola Nzeto", "latitude": null, "longitude": null, "identifiers": []}, {"id": "ango1260", "name": "Angola Suku", "latitude": null, "longitude": null, "identifiers": []}, {"id": "angp1238", "name": "Angphang", "latitude": null, "longitude": null, "identifiers": []}, {"id": "angu1242", "name": "Anguthimri", "latitude": -12.395, "longitude": 141.755, "identifiers": [{"type": "iso639-3", "identifier": "awg"}]}, {"id": "angu1243", "name": "Anguthimri-Yangathimri-Yuputhimri", "latitude": null, "longitude": null, "identifiers": []}, {"id": "angu1244", "name": "Anguthimri-Yangathimri", "latitude": null, "longitude": null, "identifiers": []}, {"id": "angw1241", "name": "Angwe (Batu)", "latitude": null, "longitude": null, "identifiers": []}, {"id": "angw1242", "name": "Angwe", "latitude": null, "longitude": null, "identifiers": []}, {"id": "anha1238", "name": "Anhaqui", "latitude": null, "longitude": null, "identifiers": []}, {"id": "anha1242", "name": "Anhar", "latitude": null, "longitude": null, "identifiers": []}, {"id": "anha1243", "name": "Anhaltisch", "latitude": null, "longitude": null, "identifiers": []}, {"id": "anhi1238", "name": "Anhil", "latitude": null, "longitude": null, "identifiers": []}, {"id": "anii1245", "name": "Anii", "latitude": 9.11127, "longitude": 1.60169, "identifiers": [{"type": "iso639-3", "identifier": "blo"}]}, {"id": "anii1246", "name": "//Ani", "latitude": -19.0966, "longitude": 22.9088, "identifiers": [{"type": "iso639-3", "identifier": "hnh"}]}, {"id": "anii1247", "name": "||Ani", "latitude": null, "longitude": null, "identifiers": []}, {"id": "anil1235", "name": "Ani-Labo", "latitude": null, "longitude": null, "identifiers": []}, {"id": "anim1239", "name": "Animere", "latitude": 7.60385, "longitude": 0.41962, "identifiers": [{"type": "iso639-3", "identifier": "anf"}]}, {"id": "anim1240", "name": "Anim", "latitude": null, "longitude": null, "identifiers": []}, {"id": "anin1240", "name": "Anindilyakwa", "latitude": -13.99904, "longitude": 136.6415, "identifiers": [{"type": "iso639-3", "identifier": "aoi"}]}, {"id": "anin1241", "name": "Anini-Y", "latitude": null, "longitude": null, "identifiers": []}, {"id": "anin1242", "name": "Aninka", "latitude": 9.08, "longitude": 8.51, "identifiers": [{"type": "iso639-3", "identifier": "aqk"}]}, {"id": "anio1238", "name": "Aniocha", "latitude": null, "longitude": null, "identifiers": []}, {"id": "anip1235", "name": "Ani Phowa", "latitude": 23.7, "longitude": 103.6, "identifiers": [{"type": "iso639-3", "identifier": "ypn"}]}, {"id": "anir1237", "name": "Warwar Feni", "latitude": null, "longitude": null, "identifiers": [{"type": "iso639-3", "identifier": "hrw"}]}, {"id": "aniw1237", "name": "Aniwa", "latitude": null, "longitude": null, "identifiers": []}, {"id": "aniz1234", "name": "Anizah of the Syrian desert", "latitude": null, "longitude": null, "identifiers": []}, {"id": "anja1238", "name": "Anjam", "latitude": -5.45899, "longitude": 145.717, "identifiers": [{"type": "iso639-3", "identifier": "boj"}]}, {"id": "anja1239", "name": "Anjagwa", "latitude": null, "longitude": null, "identifiers": []}, {"id": "anju1241", "name": "Anjuski", "latitude": null, "longitude": null, "identifiers": []}, {"id": "anka1245", "name": "Anka", "latitude": null, "longitude": null, "identifiers": []}, {"id": "anka1246", "name": "Ankave", "latitude": -7.19444, "longitude": 145.754, "identifiers": [{"type": "iso639-3", "identifier": "aak"}]}, {"id": "anka1247", "name": "Ankai", "latitude": null, "longitude": null, "identifiers": []}, {"id": "ankp1238", "name": "Ankpa", "latitude": null, "longitude": null, "identifiers": []}, {"id": "anma1239", "name": "Anmatyerre", "latitude": -22.2853, "longitude": 133.286, "identifiers": [{"type": "iso639-3", "identifier": "amx"}]}, {"id": "anoo1238", "name": "Ano", "latitude": null, "longitude": null, "identifiers": []}, {"id": "anor1241", "name": "Anor", "latitude": -4.98449, "longitude": 144.801, "identifiers": [{"type": "iso639-3", "identifier": "anj"}]}, {"id": "ansb1234", "name": "Ansbacher-Neust\u00e4dter-Coburger Franconian", "latitude": null, "longitude": null, "identifiers": []}, {"id": "anse1238", "name": "Anserma", "latitude": 6.24999, "longitude": -76.05, "identifiers": [{"type": "iso639-3", "identifier": "ans"}]}, {"id": "ansu1237", "name": "Ansus", "latitude": -1.7543, "longitude": 135.866, "identifiers": [{"type": "iso639-3", "identifier": "and"}]}, {"id": "ansu1238", "name": "Ansus-Ambai", "latitude": null, "longitude": null, "identifiers": []}, {"id": "anta1252", "name": "Antarbedi", "latitude": null, "longitude": null, "identifiers": []}, {"id": "anta1253", "name": "Antakarinya", "latitude": -27.1152, "longitude": 134.838, "identifiers": [{"type": "iso639-3", "identifier": "ant"}]}, {"id": "anta1254", "name": "Anta", "latitude": null, "longitude": null, "identifiers": []}, {"id": "anta1255", "name": "Antankarana Malagasy", "latitude": -13.2164, "longitude": 49.2402, "identifiers": [{"type": "iso639-3", "identifier": "xmv"}]}, {"id": "anta1256", "name": "Antabamba", "latitude": null, "longitude": null, "identifiers": []}, {"id": "anta1257", "name": "Antabamba (Arequipa-La Union Quechua)", "latitude": null, "longitude": null, "identifiers": []}, {"id": "anta1259", "name": "Antaimoro", "latitude": null, "longitude": null, "identifiers": []}, {"id": "anta1260", "name": "Antambohoaka", "latitude": null, "longitude": null, "identifiers": []}, {"id": "anta1261", "name": "Antaisaka", "latitude": null, "longitude": null, "identifiers": []}, {"id": "anta1262", "name": "Antanalana", "latitude": null, "longitude": null, "identifiers": []}, {"id": "ante1238", "name": "Antekerrepenh", "latitude": null, "longitude": null, "identifiers": []}, {"id": "anti1242", "name": "Antioquian", "latitude": 7.199341, "longitude": -75.342236, "identifiers": []}, {"id": "anti1245", "name": "Antigua and Barbuda Creole English", "latitude": 17.068263, "longitude": -61.821863, "identifiers": [{"type": "iso639-3", "identifier": "aig"}]}, {"id": "anti1246", "name": "Antioch", "latitude": null, "longitude": null, "identifiers": []}, {"id": "anti1247", "name": "Antillean Arawakan", "latitude": null, "longitude": null, "identifiers": []}, {"id": "anto1235", "name": "Antoniano Salinan", "latitude": null, "longitude": null, "identifiers": []}, {"id": "antw1238", "name": "Antwerps", "latitude": null, "longitude": null, "identifiers": []}, {"id": "antw1239", "name": "Antwerp Brabants", "latitude": null, "longitude": null, "identifiers": []}, {"id": "anua1242", "name": "Anuak", "latitude": 7.57714, "longitude": 34.0267, "identifiers": [{"type": "iso639-3", "identifier": "anu"}]}, {"id": "anuf1239", "name": "Anufo", "latitude": 10.2839, "longitude": 0.56021, "identifiers": [{"type": "iso639-3", "identifier": "cko"}]}, {"id": "anuk1239", "name": "Anuki", "latitude": -9.6692, "longitude": 149.822, "identifiers": [{"type": "iso639-3", "identifier": "aui"}]}, {"id": "anus1237", "name": "Anus", "latitude": -2.26271, "longitude": 139.502, "identifiers": [{"type": "iso639-3", "identifier": "auq"}]}, {"id": "anus1238", "name": "Anus-Podena", "latitude": null, "longitude": null, "identifiers": []}, {"id": "anut1237", "name": "Anuta", "latitude": -11.61, "longitude": 169.85, "identifiers": [{"type": "iso639-3", "identifier": "aud"}]}, {"id": "anuu1241", "name": "Anu-Hkongso", "latitude": 21.5, "longitude": 93.05, "identifiers": [{"type": "iso639-3", "identifier": "anl"}]}, {"id": "anuu1242", "name": "Anu (Ghana)", "latitude": null, "longitude": null, "identifiers": []}, {"id": "anuu1243", "name": "Anu", "latitude": null, "longitude": null, "identifiers": []}, {"id": "anya1244", "name": "Anyang", "latitude": null, "longitude": null, "identifiers": []}, {"id": "anya1245", "name": "Anyama", "latitude": null, "longitude": null, "identifiers": []}, {"id": "anya1246", "name": "Anyang (Cameroon)", "latitude": null, "longitude": null, "identifiers": []}, {"id": "anyi1244", "name": "Anyin Morofo", "latitude": 6.1627, "longitude": -4.64232, "identifiers": [{"type": "iso639-3", "identifier": "mtb"}]}, {"id": "anyi1245", "name": "Anyin", "latitude": 6.31781, "longitude": -3.30532, "identifiers": [{"type": "iso639-3", "identifier": "any"}]}, {"id": "anyi1246", "name": "Anyinic", "latitude": null, "longitude": null, "identifiers": []}, {"id": "anyi1247", "name": "Anyi", "latitude": 28.84359, "longitude": 115.54773, "identifiers": []}, {"id": "anyu1238", "name": "Anyugba", "latitude": null, "longitude": null, "identifiers": []}, {"id": "anyx1238", "name": "Anykh", "latitude": null, "longitude": null, "identifiers": []}, {"id": "anza1234", "name": "Anzali", "latitude": null, "longitude": null, "identifiers": []}, {"id": "aohe1237", "name": "Aoheng-Seputan", "latitude": 0.87404, "longitude": 114.127, "identifiers": [{"type": "iso639-3", "identifier": "pni"}]}, {"id": "aohe1238", "name": "Aoheng", "latitude": null, "longitude": null, "identifiers": []}, {"id": "aoic1235", "name": "Central Naga", "latitude": null, "longitude": null, "identifiers": []}, {"id": "aola1237", "name": "Aola", "latitude": null, "longitude": null, "identifiers": []}, {"id": "aolu1238", "name": "Aoluguya", "latitude": null, "longitude": null, "identifiers": []}, {"id": "aona1235", "name": "Ao Naga", "latitude": 26.3241, "longitude": 94.3824, "identifiers": [{"type": "iso639-3", "identifier": "njo"}]}, {"id": "aore1237", "name": "Aore", "latitude": -15.5753, "longitude": 167.166, "identifiers": [{"type": "iso639-3", "identifier": "aor"}]}, {"id": "aota1239", "name": "Ao T\u00e1", "latitude": null, "longitude": null, "identifiers": []}, {"id": "aoua1234", "name": "A'ou", "latitude": 26.8, "longitude": 105.85, "identifiers": [{"type": "iso639-3", "identifier": "aou"}]}, {"id": "aouu1238", "name": "Nuclear A'ou", "latitude": null, "longitude": null, "identifiers": []}, {"id": "aowi1238", "name": "Aowin", "latitude": null, "longitude": null, "identifiers": []}, {"id": "apaa1238", "name": "Apa", "latitude": null, "longitude": null, "identifiers": []}, {"id": "apab1234", "name": "Apabhramsic", "latitude": null, "longitude": null, "identifiers": []}, {"id": "apac1239", "name": "Apachean", "latitude": null, "longitude": null, "identifiers": []}, {"id": "apah1238", "name": "Apahapsili", "latitude": null, "longitude": null, "identifiers": []}, {"id": "apal1237", "name": "Apalachee", "latitude": 30.118, "longitude": -84.416, "identifiers": [{"type": "iso639-3", "identifier": "xap"}]}, {"id": "apal1255", "name": "Apalik", "latitude": -6.29002, "longitude": 149.96, "identifiers": [{"type": "iso639-3", "identifier": "apo"}]}, {"id": "apal1256", "name": "Apali", "latitude": -5.1727, "longitude": 145.023, "identifiers": [{"type": "iso639-3", "identifier": "ena"}]}, {"id": "apal1257", "name": "Apala\u00ed", "latitude": 1.49792, "longitude": -54.7457, "identifiers": [{"type": "iso639-3", "identifier": "apy"}]}, {"id": "apal1258", "name": "Apalic", "latitude": null, "longitude": null, "identifiers": []}, {"id": "apam1237", "name": "AP-AM-AH", "latitude": null, "longitude": null, "identifiers": []},